{"type":"FeatureCollection","features":[{"type":"Feature","geometry":{"type":"Point","coordinates":[10.8889450,51.3650250]},"properties":{"id":"1","filiale":"13553","name":"Sondershausen","city":"Sondershausen","address":"Frankenhäuser Straße 52","postal":"99706","state":"TH"}},{"type":"Feature","geometry":{"type":"Point","coordinates":[12.2675640,51.3444590]},"properties":{"id":"2","filiale":"13547","name":"Leipzig-Rückmarsdorf","city":"Leipzig","address":"Großer Marktweg 10","postal":"04178","state":"SN"}},{"type":"Feature","geometry":{"type":"Point","coordinates":[6.8724770,49.4390530]},"properties":{"id":"3","filiale":"13542","name":"Schmelz","city":"Schmelz","address":"Franz-Birringer-Straße 11","postal":"66839","state":"SL"}},{"type":"Feature","geometry":{"type":"Point","coordinates":[8.2157900,52.6628900]},"properties":{"id":"4","filiale":"13531","name":"Lohne","city":"Lohne","address":"Dinklager Straße 74","postal":"49393","state":"NI"}},{"type":"Feature","geometry":{"type":"Point","coordinates":[7.2269370,52.3190680]},"properties":{"id":"5","filiale":"13516","name":"Schüttorf","city":"Schüttorf","address":"Graf-Egbert-Straße 19","postal":"48465","state":"NI"}},{"type":"Feature","geometry":{"type":"Point","coordinates":[6.9096240,51.2231820]},"properties":{"id":"6","filiale":"13504","name":"Erkrath","city":"Erkrath","address":"Bongardstraße 1","postal":"40699","state":"NW"}},{"type":"Feature","geometry":{"type":"Point","coordinates":[7.5469980,51.5582560]},"properties":{"id":"7","filiale":"13501","name":"Dortmund","city":"Dortmund","address":"Droote 66","postal":"44328","state":"NW"}},{"type":"Feature","geometry":{"type":"Point","coordinates":[7.6512440,51.9044780]},"properties":{"id":"8","filiale":"13491","name":"Münster-Hiltrup","city":"Münster-Hiltrup","address":"Glasuritstr. 2-4","postal":"48165","state":"NW"}},{"type":"Feature","geometry":{"type":"Point","coordinates":[6.9844730,51.4583250]},"properties":{"id":"9","filiale":"13488","name":"Essen","city":"Essen","address":"Haedenkampstr. 5","postal":"45143","state":"NW"}},{"type":"Feature","geometry":{"type":"Point","coordinates":[7.4676660,51.6925410]},"properties":{"id":"10","filiale":"13479","name":"Selm","city":"Selm","address":"Kreisstraße 41","postal":"59379","state":"NW"}},{"type":"Feature","geometry":{"type":"Point","coordinates":[6.8429350,51.4746750]},"properties":{"id":"11","filiale":"13477","name":"Oberhausen","city":"Oberhausen","address":"Concordiastr. 32","postal":"46049","state":"NW"}},{"type":"Feature","geometry":{"type":"Point","coordinates":[7.3870400,51.3363500]},"properties":{"id":"12","filiale":"13472","name":"Gevelsberg","city":"Gevelsberg","address":"Hagener Straße 392","postal":"58285","state":"NW"}},{"type":"Feature","geometry":{"type":"Point","coordinates":[6.7500800,51.5703960]},"properties":{"id":"13","filiale":"13467","name":"Dinslaken","city":"Dinslaken","address":"Hünxerstraße 155","postal":"46537","state":"NW"}},{"type":"Feature","geometry":{"type":"Point","coordinates":[6.7591850,51.5028680]},"properties":{"id":"14","filiale":"13453","name":"Duisburg","city":"Duisburg","address":"Kaiser-Friedrich-Straße 20-24","postal":"47169","state":"NW"}},{"type":"Feature","geometry":{"type":"Point","coordinates":[8.9229410,50.1312130]},"properties":{"id":"15","filiale":"13440","name":"Hanau-City","city":"Hanau","address":"Nürnberger Straße 2-4","postal":"63450","state":"HE"}},{"type":"Feature","geometry":{"type":"Point","coordinates":[8.6631300,51.0235400]},"properties":{"id":"16","filiale":"13433","name":"Allendorf (Eder)","city":"Allendorf","address":"Otto-Wickenhöfer-Straße 7B","postal":"35108","state":"HE"}},{"type":"Feature","geometry":{"type":"Point","coordinates":[13.5711720,52.5655070]},"properties":{"id":"17","filiale":"13427","name":"Berlin-Marzahn","city":"Berlin","address":"Wittenberger Straße 80","postal":"12689","state":"BE"}},{"type":"Feature","geometry":{"type":"Point","coordinates":[11.9150300,47.8848100]},"properties":{"id":"18","filiale":"13424","name":"Bruckmühl","city":"Bruckmühl","address":"Kirchdorfer Straße 14A-B","postal":"83052","state":"BY"}},{"type":"Feature","geometry":{"type":"Point","coordinates":[11.4738410,48.2627970]},"properties":{"id":"19","filiale":"13420","name":"Dachau","city":"Dachau","address":"Fraunhoferstraße 5","postal":"85221","state":"BY"}},{"type":"Feature","geometry":{"type":"Point","coordinates":[12.5431900,48.2351000]},"properties":{"id":"20","filiale":"13419","name":"Mühldorf am Inn","city":"Mühldorf am Inn","address":"Oderstraße 27","postal":"84453","state":"BY"}},{"type":"Feature","geometry":{"type":"Point","coordinates":[9.0059500,48.7086090]},"properties":{"id":"21","filiale":"13408","name":"Sindelfingen","city":"Sindelfingen","address":"Vaihinger Straße 11-15","postal":"71063","state":"BW"}},{"type":"Feature","geometry":{"type":"Point","coordinates":[9.4895400,48.4143400]},"properties":{"id":"22","filiale":"13405","name":"Münsingen","city":"Münsingen","address":"Lichtensteinstr 30","postal":"72525","state":"BW"}},{"type":"Feature","geometry":{"type":"Point","coordinates":[8.5856470,50.1235930]},"properties":{"id":"23","filiale":"20893","name":"None","city":"Frankfurt","address":"Westerbachstrasse 148","postal":"65936","state":"HE"}},{"type":"Feature","geometry":{"type":"Point","coordinates":[10.8060410,51.4950760]},"properties":{"id":"24","filiale":"20526","name":"None","city":"Nordhausen","address":"Hallesche Strasse 53","postal":"99734","state":"TH"}},{"type":"Feature","geometry":{"type":"Point","coordinates":[8.5570760,52.0303820]},"properties":{"id":"25","filiale":"17857","name":"None","city":"Bielefeld","address":"Hakenort 45E","postal":"33609","state":"NW"}},{"type":"Feature","geometry":{"type":"Point","coordinates":[10.6907660,50.6106830]},"properties":{"id":"26","filiale":"13555","name":"Suhl","city":"Suhl","address":"Friedrich-König-Straße 21","postal":"98527","state":"TH"}},{"type":"Feature","geometry":{"type":"Point","coordinates":[10.6345890,53.8542000]},"properties":{"id":"27","filiale":"13551","name":"Lübeck-Buntekuh","city":"Lübeck-Buntekuh","address":"Ziegelstraße 232","postal":"23556","state":"SH"}},{"type":"Feature","geometry":{"type":"Point","coordinates":[6.6412120,49.4425770]},"properties":{"id":"28","filiale":"13545","name":"Merzig","city":"Merzig","address":"Hochwaldstraße 62","postal":"66663","state":"SL"}},{"type":"Feature","geometry":{"type":"Point","coordinates":[8.1655600,49.5633400]},"properties":{"id":"29","filiale":"13540","name":"Grünstadt","city":"Grünstadt","address":"Turnstraße 7-11","postal":"67269","state":"RP"}},{"type":"Feature","geometry":{"type":"Point","coordinates":[10.5477460,52.9693170]},"properties":{"id":"30","filiale":"13533","name":"Uelzen","city":"Uelzen","address":"Hauenriede 17","postal":"29525","state":"NI"}},{"type":"Feature","geometry":{"type":"Point","coordinates":[7.2900270,52.6911230]},"properties":{"id":"31","filiale":"13529","name":"Meppen","city":"Meppen","address":"Zum Stadtgraben 3","postal":"49716","state":"NI"}},{"type":"Feature","geometry":{"type":"Point","coordinates":[8.6935250,53.8440260]},"properties":{"id":"32","filiale":"13525","name":"Cuxhaven","city":"Cuxhaven","address":"Abschnede 203","postal":"27472","state":"NI"}},{"type":"Feature","geometry":{"type":"Point","coordinates":[8.5641000,51.7639700]},"properties":{"id":"33","filiale":"13515","name":"Delbrück","city":"Delbrück","address":"Oststraße 2","postal":"33129","state":"NW"}},{"type":"Feature","geometry":{"type":"Point","coordinates":[7.4914800,51.4700300]},"properties":{"id":"34","filiale":"13514","name":"Dortmund-Wellinghofen","city":"Dortmund","address":"Preinstraße 86","postal":"44265","state":"NW"}},{"type":"Feature","geometry":{"type":"Point","coordinates":[7.3351750,52.1510400]},"properties":{"id":"35","filiale":"13511","name":"Steinfurt","city":"Steinfurt","address":"Ochtruper Straße 26","postal":"48565","state":"NW"}},{"type":"Feature","geometry":{"type":"Point","coordinates":[7.0034560,52.0814400]},"properties":{"id":"36","filiale":"13505","name":"Ahaus","city":"Ahaus","address":"Wessummer Straße 60","postal":"48683","state":"NW"}},{"type":"Feature","geometry":{"type":"Point","coordinates":[7.1861400,51.1805150]},"properties":{"id":"37","filiale":"13498","name":"Remscheid","city":"Remscheid","address":"Alleestraße 77","postal":"42853","state":"NW"}},{"type":"Feature","geometry":{"type":"Point","coordinates":[6.9999560,51.4740470]},"properties":{"id":"38","filiale":"13497","name":"Essen-Altenessen","city":"Essen-Altenessen","address":"Berthold-Beitz-Boulevard 496","postal":"45141","state":"NW"}},{"type":"Feature","geometry":{"type":"Point","coordinates":[8.2227150,51.9598850]},"properties":{"id":"39","filiale":"13493","name":"Harsewinkel","city":"Harsewinkel","address":"August-Claas-Straße 8","postal":"33428","state":"NW"}},{"type":"Feature","geometry":{"type":"Point","coordinates":[6.2187450,51.0503670]},"properties":{"id":"40","filiale":"13489","name":"Hückelhoven","city":"Hückelhoven","address":"Neckarstr. 3","postal":"41836","state":"NW"}},{"type":"Feature","geometry":{"type":"Point","coordinates":[6.3072320,50.6096470]},"properties":{"id":"41","filiale":"13482","name":"Simmerath","city":"Simmerath","address":"Matthias-Zimmermann-Straße 3","postal":"52152","state":"NW"}},{"type":"Feature","geometry":{"type":"Point","coordinates":[7.1664800,51.4304000]},"properties":{"id":"42","filiale":"13478","name":"Bochum","city":"Bochum","address":"Hattinger Straße 758","postal":"44879","state":"NW"}},{"type":"Feature","geometry":{"type":"Point","coordinates":[7.7677770,51.3838840]},"properties":{"id":"43","filiale":"13473","name":"Hemer","city":"Hemer","address":"Elsa-Brandström-Straße 4","postal":"58675","state":"NW"}},{"type":"Feature","geometry":{"type":"Point","coordinates":[8.3369640,51.6112860]},"properties":{"id":"44","filiale":"13471","name":"Erwitte","city":"Erwitte","address":"Postweg 1","postal":"59597","state":"NW"}},{"type":"Feature","geometry":{"type":"Point","coordinates":[6.4350200,51.6532400]},"properties":{"id":"45","filiale":"13469","name":"Xanten","city":"Xanten","address":"Sonsbecker Straße 40-44","postal":"46509","state":"NW"}},{"type":"Feature","geometry":{"type":"Point","coordinates":[8.5252350,52.0378930]},"properties":{"id":"46","filiale":"13466","name":"Bielefeld","city":"Bielefeld","address":"Apfelstraße 8","postal":"33613","state":"NW"}},{"type":"Feature","geometry":{"type":"Point","coordinates":[7.1371000,51.5991800]},"properties":{"id":"47","filiale":"13464","name":"Herten","city":"Herten","address":"Feldstraße 29-31","postal":"45699","state":"NW"}},{"type":"Feature","geometry":{"type":"Point","coordinates":[6.1190260,50.9623480]},"properties":{"id":"48","filiale":"13449","name":"Geilenkirchen","city":"Geilenkirchen","address":"Herzog-Wilhem-Straße 12","postal":"52511","state":"NW"}},{"type":"Feature","geometry":{"type":"Point","coordinates":[6.9777990,50.8228850]},"properties":{"id":"49","filiale":"13448","name":"Wesseling","city":"Wesseling","address":"Flach-Fengler-Straße 48-54","postal":"50389","state":"NW"}},{"type":"Feature","geometry":{"type":"Point","coordinates":[8.5809720,50.7687360]},"properties":{"id":"50","filiale":"13441","name":"Gladenbach","city":"Gladenbach","address":"Marktplatz 1","postal":"35075","state":"HE"}},{"type":"Feature","geometry":{"type":"Point","coordinates":[8.8750680,50.2267410]},"properties":{"id":"51","filiale":"13439","name":"Nidderau-Windecken","city":"Nidderau","address":"Am Pfarrgarten 6","postal":"61130","state":"HE"}},{"type":"Feature","geometry":{"type":"Point","coordinates":[9.4557510,51.2906630]},"properties":{"id":"52","filiale":"13435","name":"Kassel","city":"Kassel","address":"Glöcknerpfad 33","postal":"34134","state":"HE"}},{"type":"Feature","geometry":{"type":"Point","coordinates":[8.6011440,53.1855650]},"properties":{"id":"53","filiale":"13431","name":"Bremen-Vegesack","city":"Bremen","address":"Hammersbecker Straße 193","postal":"28755","state":"HB"}},{"type":"Feature","geometry":{"type":"Point","coordinates":[8.5883500,53.5384900]},"properties":{"id":"54","filiale":"13430","name":"Bremerhaven","city":"Bremerhaven","address":"Industriestraße 33-37","postal":"27570","state":"HB"}},{"type":"Feature","geometry":{"type":"Point","coordinates":[13.5602040,52.5064010]},"properties":{"id":"55","filiale":"13429","name":"Berlin-Biesdorf","city":"Berlin","address":"Weißenhöher Str. 108 99","postal":"12683","state":"BE"}},{"type":"Feature","geometry":{"type":"Point","coordinates":[10.5693520,49.3059370]},"properties":{"id":"56","filiale":"13421","name":"Ansbach","city":"Ansbach","address":"Residenzstraße 2-6","postal":"91522","state":"BY"}},{"type":"Feature","geometry":{"type":"Point","coordinates":[10.3175210,47.7238600]},"properties":{"id":"57","filiale":"13414","name":"Kempten","city":"Kempten","address":"Freudenberg 1","postal":"87435","state":"BY"}},{"type":"Feature","geometry":{"type":"Point","coordinates":[11.8904710,48.3126840]},"properties":{"id":"58","filiale":"13413","name":"Erding","city":"Erding","address":"Franz-Brombach-Straße 11","postal":"85435","state":"BY"}},{"type":"Feature","geometry":{"type":"Point","coordinates":[10.4712980,48.5776320]},"properties":{"id":"59","filiale":"13411","name":"Dillingen an der Donau","city":"Dillingen","address":"Hausener Straße 9","postal":"89407","state":"BY"}},{"type":"Feature","geometry":{"type":"Point","coordinates":[8.9991270,48.2106210]},"properties":{"id":"60","filiale":"13407","name":"Albstadt-Ebingen","city":"Albstadt-Ebingen","address":"Kientenstraße 57","postal":"72458","state":"BW"}},{"type":"Feature","geometry":{"type":"Point","coordinates":[9.5868000,48.9770000]},"properties":{"id":"61","filiale":"13406","name":"Murrhardt","city":"Murrhardt","address":"Fornsbacher Straße 54","postal":"71540","state":"BW"}},{"type":"Feature","geometry":{"type":"Point","coordinates":[7.7246950,50.4633720]},"properties":{"id":"62","filiale":"13536","name":"Ransbach-Baumbach","city":"Ransbach-Baumbach","address":"Pleurtuit-Straße 3-5","postal":"56235","state":"RP"}},{"type":"Feature","geometry":{"type":"Point","coordinates":[7.5346900,50.3954680]},"properties":{"id":"63","filiale":"13535","name":"Mülheim-Kärlich","city":"Mülheim-Kärlich","address":"Industrie straße 4","postal":"56218","state":"RP"}},{"type":"Feature","geometry":{"type":"Point","coordinates":[8.1384940,53.3931710]},"properties":{"id":"64","filiale":"13534","name":"Varel","city":"Varel","address":"Bürgermeister-Heidenreich-Straße 9-11","postal":"26316","state":"NI"}},{"type":"Feature","geometry":{"type":"Point","coordinates":[9.2348160,52.9243710]},"properties":{"id":"65","filiale":"13532","name":"Verden","city":"Verden","address":"Husarenstraße 2","postal":"27283","state":"NI"}},{"type":"Feature","geometry":{"type":"Point","coordinates":[7.5684410,53.1332060]},"properties":{"id":"66","filiale":"13530","name":"Rhauderfehn","city":"Rhauderfehn","address":"Rosmarinheide 46","postal":"26817","state":"NI"}},{"type":"Feature","geometry":{"type":"Point","coordinates":[7.2096900,53.3920700]},"properties":{"id":"67","filiale":"13523","name":"Emden","city":"Emden","address":"Herderstraße 4","postal":"26721","state":"NI"}},{"type":"Feature","geometry":{"type":"Point","coordinates":[8.0991870,52.2679360]},"properties":{"id":"68","filiale":"13522","name":"Osnabrück","city":"Osnabrück","address":"Mindenerstraße 228-230","postal":"49084","state":"NI"}},{"type":"Feature","geometry":{"type":"Point","coordinates":[7.4768860,53.2344260]},"properties":{"id":"69","filiale":"13520","name":"Leer","city":"Leer","address":"Papenburger Straße 1a","postal":"26789","state":"NI"}},{"type":"Feature","geometry":{"type":"Point","coordinates":[6.3978080,51.1730600]},"properties":{"id":"70","filiale":"13508","name":"Mönchengladbach-Holt","city":"Mönchengladbach","address":"Aachener Straße 699","postal":"41069","state":"NW"}},{"type":"Feature","geometry":{"type":"Point","coordinates":[7.7925360,51.4392210]},"properties":{"id":"71","filiale":"13502","name":"Menden","city":"Menden","address":"Unnaer Straße 11","postal":"58706","state":"NW"}},{"type":"Feature","geometry":{"type":"Point","coordinates":[6.2756090,50.8919210]},"properties":{"id":"72","filiale":"13495","name":"Aldenhoven","city":"Aldenhoven","address":"Am alten Bahnhof 1","postal":"52457","state":"NW"}},{"type":"Feature","geometry":{"type":"Point","coordinates":[6.8545110,51.8445530]},"properties":{"id":"73","filiale":"13492","name":"Borken","city":"Borken","address":"Butenwall 53","postal":"46325","state":"NW"}},{"type":"Feature","geometry":{"type":"Point","coordinates":[6.8905680,51.4291910]},"properties":{"id":"74","filiale":"13485","name":"Mülheim an der Ruhr","city":"Mülheim an der Ruhr","address":"Tourainer Ring 2-12","postal":"45468","state":"NW"}},{"type":"Feature","geometry":{"type":"Point","coordinates":[7.7846700,52.3143500]},"properties":{"id":"75","filiale":"13484","name":"Mettingen","city":"Mettingen","address":"Ibbenbürenerstr. 1","postal":"49497","state":"NW"}},{"type":"Feature","geometry":{"type":"Point","coordinates":[7.4786540,50.8418130]},"properties":{"id":"76","filiale":"13483","name":"Ruppichteroth","city":"Ruppichteroth","address":"Brölstraße 2","postal":"53809","state":"NW"}},{"type":"Feature","geometry":{"type":"Point","coordinates":[6.9700090,51.3268280]},"properties":{"id":"77","filiale":"13476","name":"Heiligenhaus","city":"Heiligenhaus","address":"Hauptstraße (Basildonplatz) 163","postal":"42579","state":"NW"}},{"type":"Feature","geometry":{"type":"Point","coordinates":[7.0087710,51.5217570]},"properties":{"id":"78","filiale":"13470","name":"Essen-Karnap","city":"Essen-Karnap","address":"Karnaper Strasse 90-94","postal":"45329","state":"NW"}},{"type":"Feature","geometry":{"type":"Point","coordinates":[8.5611590,51.3947500]},"properties":{"id":"79","filiale":"13463","name":"Brilon","city":"Brilon","address":"Altenbürener Str. 9-11","postal":"59929","state":"NW"}},{"type":"Feature","geometry":{"type":"Point","coordinates":[6.8535450,51.4669620]},"properties":{"id":"80","filiale":"13458","name":"Oberhausen","city":"Oberhausen","address":"Hermann-Albertz-Straße 111-113","postal":"46045","state":"NW"}},{"type":"Feature","geometry":{"type":"Point","coordinates":[6.6776600,50.9033100]},"properties":{"id":"81","filiale":"13456","name":"Kerpen","city":"Kerpen","address":"Thalia Straße 5","postal":"50170","state":"NW"}},{"type":"Feature","geometry":{"type":"Point","coordinates":[8.5937180,52.2085230]},"properties":{"id":"82","filiale":"13455","name":"Bünde","city":"Bünde","address":"Dünner Straße 8-12","postal":"32257","state":"NW"}},{"type":"Feature","geometry":{"type":"Point","coordinates":[8.7540190,52.0671490]},"properties":{"id":"83","filiale":"13454","name":"Bad Salzuflen","city":"Bad Salzuflen","address":"Uferstraße 10","postal":"32108","state":"NW"}},{"type":"Feature","geometry":{"type":"Point","coordinates":[7.9175900,51.5485000]},"properties":{"id":"84","filiale":"13451","name":"Werl","city":"Werl","address":"Steinerstraße 63","postal":"59457","state":"NW"}},{"type":"Feature","geometry":{"type":"Point","coordinates":[7.1522090,50.6871620]},"properties":{"id":"85","filiale":"13447","name":"Bonn","city":"Bonn","address":"Bonner Straße 29-31","postal":"53173","state":"NW"}},{"type":"Feature","geometry":{"type":"Point","coordinates":[6.1593100,51.6837800]},"properties":{"id":"86","filiale":"13446","name":"Goch","city":"Goch","address":"Klever Straße 21-23","postal":"47574","state":"NW"}},{"type":"Feature","geometry":{"type":"Point","coordinates":[8.5013720,50.5605880]},"properties":{"id":"87","filiale":"13443","name":"Wetzlar","city":"Wetzlar","address":"Karl-Kellner-Ring 50","postal":"35576","state":"HE"}},{"type":"Feature","geometry":{"type":"Point","coordinates":[8.6894420,50.6027930]},"properties":{"id":"88","filiale":"13437","name":"Gießen","city":"Gießen","address":"Marburger Straße 183","postal":"35390","state":"HE"}},{"type":"Feature","geometry":{"type":"Point","coordinates":[10.8892900,48.2861400]},"properties":{"id":"89","filiale":"13423","name":"Königsbrunn","city":"Königsbrunn","address":"Wandalenstraße 26","postal":"86343","state":"BY"}},{"type":"Feature","geometry":{"type":"Point","coordinates":[8.7521600,48.0681700]},"properties":{"id":"90","filiale":"13410","name":"Spaichingen","city":"Spaichingen","address":"Obere Wiesen 9","postal":"78549","state":"BW"}},{"type":"Feature","geometry":{"type":"Point","coordinates":[9.5317400,50.3530100]},"properties":{"id":"91","filiale":"22777","name":"None","city":"Schlüchtern","address":"Gartenstrasse 23a","postal":"36381","state":"HE"}},{"type":"Feature","geometry":{"type":"Point","coordinates":[13.1995650,52.6362410]},"properties":{"id":"92","filiale":"17714","name":"None","city":"Hennigsdorf","address":"Havelplatz 3","postal":"16761","state":"BR"}},{"type":"Feature","geometry":{"type":"Point","coordinates":[10.9521440,50.8451920]},"properties":{"id":"93","filiale":"13554","name":"Arnstadt","city":"Arnstadt","address":"Ichtershäuser Straße 22","postal":"99310","state":"TH"}},{"type":"Feature","geometry":{"type":"Point","coordinates":[10.0524030,54.3218700]},"properties":{"id":"94","filiale":"13552","name":"Kiel-Mettenhof","city":"Kiel","address":"Kurt-Schumacher-Platz 13 None","postal":"24109","state":"SH"}},{"type":"Feature","geometry":{"type":"Point","coordinates":[10.2197900,54.0418800]},"properties":{"id":"95","filiale":"13550","name":"Trappenkamp","city":"Trappenkamp","address":"Erfurter Straße 1","postal":"24610","state":"SH"}},{"type":"Feature","geometry":{"type":"Point","coordinates":[11.2416090,52.0295730]},"properties":{"id":"96","filiale":"13549","name":"Oschersleben","city":"Oschersleben","address":"Anderslebener Straße 30","postal":"39387","state":"ST"}},{"type":"Feature","geometry":{"type":"Point","coordinates":[11.4829430,52.1786980]},"properties":{"id":"97","filiale":"13548","name":"Hermsdorf","city":"Hermsdorf (Hohe Börde)","address":"Am Elbepark 1","postal":"39326","state":"ST"}},{"type":"Feature","geometry":{"type":"Point","coordinates":[14.9423900,51.1461500]},"properties":{"id":"98","filiale":"13546","name":"Görlitz","city":"Görlitz","address":"Friedrich-Naumann-Straße 3","postal":"02827","state":"SN"}},{"type":"Feature","geometry":{"type":"Point","coordinates":[7.8101470,50.6671010]},"properties":{"id":"99","filiale":"13541","name":"Hachenburg","city":"Hachenburg","address":"Saynstraße 42","postal":"57627","state":"RP"}},{"type":"Feature","geometry":{"type":"Point","coordinates":[7.5980430,50.3706080]},"properties":{"id":"100","filiale":"13539","name":"Koblenz-Lützel","city":"Koblenz","address":"Wallersheimer Weg 34","postal":"56070","state":"RP"}},{"type":"Feature","geometry":{"type":"Point","coordinates":[13.4425540,52.5434770]},"properties":{"id":"101","filiale":"22776","name":"None","city":"Berlin","address":"Greifswalder Straße 90","postal":"10409","state":"BE"}},{"type":"Feature","geometry":{"type":"Point","coordinates":[13.4386680,52.7143100]},"properties":{"id":"102","filiale":"17715","name":"None","city":"Wandlitz","address":"Am Markt 1","postal":"16348","state":"BR"}},{"type":"Feature","geometry":{"type":"Point","coordinates":[8.5847530,49.4522770]},"properties":{"id":"103","filiale":"17713","name":"None","city":"Edingen-Neckarhausen","address":"Rosenstrasse 83","postal":"68535","state":"BW"}},{"type":"Feature","geometry":{"type":"Point","coordinates":[8.6164500,51.9020950]},"properties":{"id":"104","filiale":"16149","name":"None","city":"Schloß Holte Stukenbrock","address":"Holter Kirchplatz 26","postal":"33758","state":"NW"}},{"type":"Feature","geometry":{"type":"Point","coordinates":[7.0477970,51.4662730]},"properties":{"id":"105","filiale":"14962","name":"None","city":"Essen","address":"Hubertstraße 40","postal":"45139","state":"NW"}},{"type":"Feature","geometry":{"type":"Point","coordinates":[13.2568100,52.3030700]},"properties":{"id":"106","filiale":"14961","name":"None","city":"Ludwigsfelde","address":"Potsdamer Straße 54j","postal":"14974","state":"BR"}},{"type":"Feature","geometry":{"type":"Point","coordinates":[13.1273300,52.5289600]},"properties":{"id":"107","filiale":"14959","name":"Berlin-Spandau","city":"Berlin","address":"Nennhauser Damm 170","postal":"13591","state":"BE"}},{"type":"Feature","geometry":{"type":"Point","coordinates":[9.1118860,47.9949600]},"properties":{"id":"108","filiale":"14958","name":"None","city":"Meßkirch","address":"Grabenbachstrasse 14","postal":"88605","state":"BW"}},{"type":"Feature","geometry":{"type":"Point","coordinates":[7.1821510,49.3386280]},"properties":{"id":"109","filiale":"13544","name":"Neunkirchen","city":"Neunkirchen","address":"Hohlstraße 30","postal":"66538","state":"SL"}},{"type":"Feature","geometry":{"type":"Point","coordinates":[7.7299900,49.4438840]},"properties":{"id":"110","filiale":"13538","name":"Kaiserslautern","city":"Kaiserslautern","address":"Merkurstraße 10","postal":"67663","state":"RP"}},{"type":"Feature","geometry":{"type":"Point","coordinates":[9.9102830,51.5077640]},"properties":{"id":"111","filiale":"13528","name":"Rosdorf","city":"Rosdorf","address":"Rischenweg 15","postal":"37124","state":"NI"}},{"type":"Feature","geometry":{"type":"Point","coordinates":[7.3908920,53.0780240]},"properties":{"id":"112","filiale":"13527","name":"Papenburg","city":"Papenburg","address":"Am Stadtpark 8","postal":"26871","state":"NI"}},{"type":"Feature","geometry":{"type":"Point","coordinates":[8.0585590,52.8426780]},"properties":{"id":"113","filiale":"13519","name":"Cloppenburg","city":"Cloppenburg","address":"Emsteker Straße 67","postal":"49661","state":"NI"}},{"type":"Feature","geometry":{"type":"Point","coordinates":[6.4877740,50.6955860]},"properties":{"id":"114","filiale":"13518","name":"Nideggen","city":"Nideggen","address":"Am Eisernen Kreuz 1","postal":"52385","state":"NW"}},{"type":"Feature","geometry":{"type":"Point","coordinates":[8.0601100,52.3010000]},"properties":{"id":"115","filiale":"13517","name":"Osnabrück","city":"Osnabrück","address":"Mönkedieckstr. 1","postal":"49088","state":"NI"}},{"type":"Feature","geometry":{"type":"Point","coordinates":[6.6191600,51.6580700]},"properties":{"id":"116","filiale":"13513","name":"Wesel","city":"Wesel","address":"Apollopassage 29","postal":"46483","state":"NW"}},{"type":"Feature","geometry":{"type":"Point","coordinates":[7.5495800,51.5934400]},"properties":{"id":"117","filiale":"13510","name":"Lünen","city":"Lünen","address":"Preussenstraße 51-53","postal":"44532","state":"NW"}},{"type":"Feature","geometry":{"type":"Point","coordinates":[6.4766230,50.8082220]},"properties":{"id":"118","filiale":"13507","name":"Düren","city":"Düren","address":"Fritz-Erler-Straße 21","postal":"52349","state":"NW"}},{"type":"Feature","geometry":{"type":"Point","coordinates":[6.4452580,51.1676280]},"properties":{"id":"119","filiale":"13506","name":"Mönchengladbach-Rheydt","city":"Mönchengladbach-Rheydt","address":"Markt 10","postal":"41236","state":"NW"}},{"type":"Feature","geometry":{"type":"Point","coordinates":[7.0460190,51.5662110]},"properties":{"id":"120","filiale":"13500","name":"Gelsenkirchen","city":"Gelsenkirchen","address":"Horster Straße 180","postal":"45897","state":"NW"}},{"type":"Feature","geometry":{"type":"Point","coordinates":[6.7544100,51.4411500]},"properties":{"id":"121","filiale":"13494","name":"Duisburg","city":"Duisburg","address":"Auf der Höhe 18","postal":"47059","state":"NW"}},{"type":"Feature","geometry":{"type":"Point","coordinates":[7.5281110,51.6149490]},"properties":{"id":"122","filiale":"13487","name":"Lünen","city":"Lünen","address":"Merschstraße 25","postal":"44534","state":"NW"}},{"type":"Feature","geometry":{"type":"Point","coordinates":[6.0611600,50.8135800]},"properties":{"id":"123","filiale":"13480","name":"Aachen-Richterich","city":"Aachen-Richterich","address":"Roermonder Straße 577-579","postal":"52072","state":"NW"}},{"type":"Feature","geometry":{"type":"Point","coordinates":[6.7596000,51.3799100]},"properties":{"id":"124","filiale":"13475","name":"Duisburg","city":"Duisburg","address":"Düsseldorfer Landstraße 129","postal":"47249","state":"NW"}},{"type":"Feature","geometry":{"type":"Point","coordinates":[7.2344670,51.1469140]},"properties":{"id":"125","filiale":"13474","name":"Wermelskirchen","city":"Wermelskirchen","address":"Neuenhöhe 11","postal":"42929","state":"NW"}},{"type":"Feature","geometry":{"type":"Point","coordinates":[8.0252960,50.8968440]},"properties":{"id":"126","filiale":"13465","name":"Siegen","city":"Siegen","address":"Bismarckstraße 15","postal":"57076","state":"NW"}},{"type":"Feature","geometry":{"type":"Point","coordinates":[7.5272100,51.9442200]},"properties":{"id":"127","filiale":"13461","name":"Münster-Roxel","city":"Münster-Roxel","address":"Nottulner Landweg 106","postal":"48161","state":"NW"}},{"type":"Feature","geometry":{"type":"Point","coordinates":[7.5423040,50.9845140]},"properties":{"id":"128","filiale":"13460","name":"Gummersbach","city":"Gummersbach","address":"Dieringhauser Straße 3","postal":"51645","state":"NW"}},{"type":"Feature","geometry":{"type":"Point","coordinates":[8.4265000,51.9119400]},"properties":{"id":"129","filiale":"13459","name":"Gütersloh","city":"Gütersloh","address":"Osnabrücker Landstraße 2-8","postal":"33335","state":"NW"}},{"type":"Feature","geometry":{"type":"Point","coordinates":[7.2485590,51.4931130]},"properties":{"id":"130","filiale":"13457","name":"Bochum","city":"Bochum","address":"Castroper Str. 243","postal":"44791","state":"NW"}},{"type":"Feature","geometry":{"type":"Point","coordinates":[7.0392900,50.6267600]},"properties":{"id":"131","filiale":"13450","name":"Meckenheim","city":"Meckenheim","address":"Neuer Markt 54","postal":"53340","state":"NW"}},{"type":"Feature","geometry":{"type":"Point","coordinates":[6.3440500,51.2549700]},"properties":{"id":"132","filiale":"13445","name":"Viersen","city":"Viersen","address":"Viersener Straße 99","postal":"41751","state":"NW"}},{"type":"Feature","geometry":{"type":"Point","coordinates":[8.4854640,49.5972750]},"properties":{"id":"133","filiale":"13438","name":"Lampertheim","city":"Lampertheim","address":"Otto-Hahn-Straße 16","postal":"68623","state":"HE"}},{"type":"Feature","geometry":{"type":"Point","coordinates":[8.8953100,50.1142200]},"properties":{"id":"134","filiale":"13436","name":"Hanau","city":"Hanau","address":"Otto-Hahn-Straße 18","postal":"63450","state":"HE"}},{"type":"Feature","geometry":{"type":"Point","coordinates":[8.9092980,50.8279990]},"properties":{"id":"135","filiale":"13434","name":"Kirchhain","city":"Kirchhain","address":"Frankfurter Straße 43","postal":"35274","state":"HE"}},{"type":"Feature","geometry":{"type":"Point","coordinates":[8.8300750,49.9676800]},"properties":{"id":"136","filiale":"13432","name":"Rödermark","city":"Rödermark","address":"Odenwaldstraße 80","postal":"63322","state":"HE"}},{"type":"Feature","geometry":{"type":"Point","coordinates":[13.5044181,52.5480768]},"properties":{"id":"137","filiale":"13428","name":"Berlin-Hohenschönhausen","city":"Berlin","address":"Hauptstraße 9-9d","postal":"13055","state":"BE"}},{"type":"Feature","geometry":{"type":"Point","coordinates":[12.1102490,47.7871770]},"properties":{"id":"138","filiale":"13425","name":"Raubling","city":"Raubling","address":"Kufsteiner Strasse 27","postal":"83064","state":"BY"}},{"type":"Feature","geometry":{"type":"Point","coordinates":[12.1714780,49.6763570]},"properties":{"id":"139","filiale":"13422","name":"Weiden","city":"Weiden in der Oberpfalz","address":"Friedrich-Ebert-Straße 12","postal":"92637","state":"BY"}},{"type":"Feature","geometry":{"type":"Point","coordinates":[12.5862020,47.9663800]},"properties":{"id":"140","filiale":"13418","name":"Traunreut","city":"Traunreut","address":"Werner-von-Siemens-Straße 2","postal":"83301","state":"BY"}},{"type":"Feature","geometry":{"type":"Point","coordinates":[12.5643100,48.8666600]},"properties":{"id":"141","filiale":"13417","name":"Straubing","city":"Straubing","address":"Rosegger Straße 10","postal":"94315","state":"BY"}},{"type":"Feature","geometry":{"type":"Point","coordinates":[12.0798500,50.0053100]},"properties":{"id":"142","filiale":"13416","name":"Marktredwitz","city":"Marktredwitz","address":"Schulze-Delitzsch-Straße 2a","postal":"95615","state":"BY"}},{"type":"Feature","geometry":{"type":"Point","coordinates":[10.7635650,48.7179760]},"properties":{"id":"143","filiale":"13412","name":"Donauwörth","city":"Donauwörth","address":"Dillinger Straße 49","postal":"86609","state":"BY"}},{"type":"Feature","geometry":{"type":"Point","coordinates":[12.2659930,49.1962320]},"properties":{"id":"144","filiale":"20517","name":"None","city":"Nittenau","address":"Regentalstr. 11","postal":"93149","state":"BY"}},{"type":"Feature","geometry":{"type":"Point","coordinates":[6.5319840,51.5040830]},"properties":{"id":"145","filiale":"18568","name":"None","city":"Kamp-Lintfort","address":"Moerser Straße 51-59","postal":"47475","state":"NW"}},{"type":"Feature","geometry":{"type":"Point","coordinates":[10.5012000,53.8234800]},"properties":{"id":"146","filiale":"17716","name":"None","city":"Reinfeld","address":"An der Autobahn 7","postal":"23858","state":"SH"}},{"type":"Feature","geometry":{"type":"Point","coordinates":[13.5602040,52.5064010]},"properties":{"id":"147","filiale":"14960","name":"Berlin-Biesdorf","city":"Berlin","address":"Weißenhöher Str. 108","postal":"12683","state":"BE"}},{"type":"Feature","geometry":{"type":"Point","coordinates":[7.0418150,49.2124590]},"properties":{"id":"148","filiale":"13543","name":"Homburg-Saar","city":"Homburg-Saar","address":"Saarbrückerstraße 106","postal":"66424","state":"SL"}},{"type":"Feature","geometry":{"type":"Point","coordinates":[7.6418490,50.5469040]},"properties":{"id":"149","filiale":"13537","name":"Dierdorf","city":"Dierdorf","address":"Königsberger Str. 5a","postal":"56269","state":"RP"}},{"type":"Feature","geometry":{"type":"Point","coordinates":[7.8553990,53.0308980]},"properties":{"id":"150","filiale":"13526","name":"Friesoythe","city":"Friesoythe","address":"Barßeler Straße 35-37","postal":"26169","state":"NI"}},{"type":"Feature","geometry":{"type":"Point","coordinates":[7.6870020,52.5136060]},"properties":{"id":"151","filiale":"13524","name":"Fürstenau","city":"Fürstenau","address":"Werner-van-Siemens-Straße 5","postal":"49584","state":"NI"}},{"type":"Feature","geometry":{"type":"Point","coordinates":[7.0833600,52.4413900]},"properties":{"id":"152","filiale":"13521","name":"Nordhorn","city":"Nordhorn","address":"Lingener Straße 97","postal":"48531","state":"NI"}},{"type":"Feature","geometry":{"type":"Point","coordinates":[6.1559690,50.8177100]},"properties":{"id":"153","filiale":"13512","name":"Würselen-Broichweiden","city":"Würselen","address":"Hauptstraße 206","postal":"52146","state":"NW"}},{"type":"Feature","geometry":{"type":"Point","coordinates":[6.7195900,51.2330100]},"properties":{"id":"154","filiale":"13509","name":"Düsseldorf-Heerdt","city":"Düsseldorf- Heerdt","address":"Schiessstraße 3-5","postal":"40549","state":"NW"}},{"type":"Feature","geometry":{"type":"Point","coordinates":[7.0464220,50.7501380]},"properties":{"id":"155","filiale":"13503","name":"Bonn","city":"Bonn","address":"Oppelner Straße 128","postal":"53119","state":"NW"}},{"type":"Feature","geometry":{"type":"Point","coordinates":[6.8860640,51.4567580]},"properties":{"id":"156","filiale":"13499","name":"Mülheim Dümpten","city":"Mülheim Dümpten","address":"Heifeskamp 6","postal":"45475","state":"NW"}},{"type":"Feature","geometry":{"type":"Point","coordinates":[6.9256370,51.5199430]},"properties":{"id":"157","filiale":"13496","name":"Bottrop","city":"Bottrop","address":"Hochstraße 17","postal":"46236","state":"NW"}},{"type":"Feature","geometry":{"type":"Point","coordinates":[6.2741500,51.3060900]},"properties":{"id":"158","filiale":"13490","name":"Nettetal","city":"Nettetal","address":"Von-Bocholtz-Straße 23","postal":"41334","state":"NW"}},{"type":"Feature","geometry":{"type":"Point","coordinates":[6.5712600,50.9922800]},"properties":{"id":"159","filiale":"13486","name":"Bedburg","city":"Bedburg","address":"Neusser Straße 1","postal":"50181","state":"NW"}},{"type":"Feature","geometry":{"type":"Point","coordinates":[6.7731880,51.4928090]},"properties":{"id":"160","filiale":"13481","name":"Duisburg","city":"Duisburg","address":"Rathausstraße 11","postal":"47166","state":"NW"}},{"type":"Feature","geometry":{"type":"Point","coordinates":[6.4584930,51.1970870]},"properties":{"id":"161","filiale":"13468","name":"Mönchengladbach-Lürrip","city":"Mönchengladbach-Lürrip","address":"Reyerhütterstraße 7-21","postal":"41065","state":"NW"}},{"type":"Feature","geometry":{"type":"Point","coordinates":[7.7437500,51.6625400]},"properties":{"id":"162","filiale":"13462","name":"Hamm","city":"Hamm","address":"Fritz-Husemann-Straße 1","postal":"59077","state":"NW"}},{"type":"Feature","geometry":{"type":"Point","coordinates":[6.4977900,51.3193600]},"properties":{"id":"163","filiale":"13452","name":"Tönisvorst","city":"Tönisvorst","address":"Benrader Straße 9","postal":"47918","state":"NW"}},{"type":"Feature","geometry":{"type":"Point","coordinates":[8.2309450,50.0492260]},"properties":{"id":"164","filiale":"13444","name":"Wiesbaden","city":"Wiesbaden","address":"Hagenauer Straße 13","postal":"65203","state":"HE"}},{"type":"Feature","geometry":{"type":"Point","coordinates":[8.6156500,50.1484730]},"properties":{"id":"165","filiale":"13442","name":"Frankfurt am Main - Praunheim","city":"Frankfurt am Main","address":"Heerstraße 54","postal":"60488","state":"HE"}},{"type":"Feature","geometry":{"type":"Point","coordinates":[13.1273300,52.5289600]},"properties":{"id":"166","filiale":"13426","name":"Berlin-Spandau","city":"Berlin","address":"Nennhauser Damm 170","postal":"13591","state":"BE"}},{"type":"Feature","geometry":{"type":"Point","coordinates":[10.9203600,49.8790120]},"properties":{"id":"167","filiale":"13415","name":"Bamberg","city":"Bamberg","address":"Forchheimer Straße 15","postal":"96050","state":"BY"}},{"type":"Feature","geometry":{"type":"Point","coordinates":[9.8226160,48.6270340]},"properties":{"id":"168","filiale":"13409","name":"Geislingen an der Steige","city":"Geislingen an der Steige","address":"Rheinlandstraße 89","postal":"73312","state":"BW"}}]}