{"type":"FeatureCollection","features":[{"type":"Feature","geometry":{"type":"Point","coordinates":[13.54721,52.43232]},"properties":{"id":"1","store":"ALDI Nord","filiale":"","name":"","city":"Berlin","address":"Otto-Franke-Straße 98","postal":"12489","state":"BE","opening_hours":"Mo-Fr: 8:00 - 20:00, Sa: 8:00 - 20:00","downloaded":"2018-08-24"}},{"type":"Feature","geometry":{"type":"Point","coordinates":[13.4569485,52.4859247]},"properties":{"id":"2","store":"ALDI Nord","filiale":"","name":"","city":"Berlin","address":"Kiefholzstraße 49","postal":"12435","state":"BE","opening_hours":"Mo-Fr: 08:00 - 21:00, Sa: 08:00 - 21:00","downloaded":"2018-08-24"}},{"type":"Feature","geometry":{"type":"Point","coordinates":[13.5238547,52.4055077]},"properties":{"id":"3","store":"ALDI Nord","filiale":"","name":"","city":"Berlin","address":"Schönefelder Chaussee 174","postal":"12524","state":"BE","opening_hours":"Mo-Fr: 08:00 - 21:00, Sa: 08:00 - 21:00","downloaded":"2018-08-24"}},{"type":"Feature","geometry":{"type":"Point","coordinates":[13.5267628,52.4242013]},"properties":{"id":"4","store":"ALDI Nord","filiale":"","name":"","city":"Berlin","address":"Wegedornstraße 29","postal":"12524","state":"BE","opening_hours":"Mo-Fr: 08:00 - 20:00, Sa: 08:00 - 20:00","downloaded":"2018-08-24"}},{"type":"Feature","geometry":{"type":"Point","coordinates":[13.5626691,52.5102871]},"properties":{"id":"5","store":"ALDI Nord","filiale":"","name":"","city":"Berlin","address":"Dingolfinger Str. 1","postal":"12683","state":"BE","opening_hours":"Mo-Fr: 8:00 - 20:00, Sa: 8:00 - 20:00","downloaded":"2018-08-24"}},{"type":"Feature","geometry":{"type":"Point","coordinates":[13.5410569,52.3969819]},"properties":{"id":"6","store":"ALDI Nord","filiale":"","name":"","city":"Berlin","address":"Alexander-Meißner-Straße 1","postal":"12526","state":"BE","opening_hours":"Mo-Fr: 8:00 - 20:00, Sa: 8:00 - 20:00","downloaded":"2018-08-24"}},{"type":"Feature","geometry":{"type":"Point","coordinates":[13.319842,52.5836017]},"properties":{"id":"7","store":"ALDI Nord","filiale":"","name":"","city":"Berlin","address":"Eichborndamm  165","postal":"13403","state":"BE","opening_hours":"Mo-Fr: 08:00 - 20:00, Sa: 08:00 - 20:00","downloaded":"2018-08-24"}},{"type":"Feature","geometry":{"type":"Point","coordinates":[13.4557288,52.452277]},"properties":{"id":"8","store":"ALDI Nord","filiale":"","name":"","city":"Berlin","address":"Späthstraße 14-15","postal":"12359","state":"BE","opening_hours":"Mo-Fr: 8:00 - 20:00, Sa: 8:00 - 20:00","downloaded":"2018-08-24"}},{"type":"Feature","geometry":{"type":"Point","coordinates":[13.51548,52.64067]},"properties":{"id":"9","store":"ALDI Nord","filiale":"","name":"","city":"Berlin","address":"Zepernicker Straße  10","postal":"13125","state":"BE","opening_hours":"Mo-Fr: 8:00 - 20:00, Sa: 8:00 - 20:00","downloaded":"2018-08-24"}},{"type":"Feature","geometry":{"type":"Point","coordinates":[13.4339665,52.4402077]},"properties":{"id":"10","store":"ALDI Nord","filiale":"","name":"","city":"Berlin","address":"Buckower Damm  50","postal":"12349","state":"BE","opening_hours":"Mo-Fr: 08:00 - 20:00, Sa: 08:00 - 20:00","downloaded":"2018-08-24"}},{"type":"Feature","geometry":{"type":"Point","coordinates":[13.4738,52.42283]},"properties":{"id":"11","store":"ALDI Nord","filiale":"","name":"","city":"Berlin","address":"Joachim-Gottschalk-Weg 5","postal":"12353","state":"BE","opening_hours":"Mo-Fr: 08:00 - 20:00, Sa: 08:00 - 20:00","downloaded":"2018-08-24"}},{"type":"Feature","geometry":{"type":"Point","coordinates":[13.4565404,52.4310351]},"properties":{"id":"12","store":"ALDI Nord","filiale":"","name":"","city":"Berlin","address":"Johannisthaler Chaussee 300","postal":"12351","state":"BE","opening_hours":"Mo-Fr: 8:00 - 20:00, Sa: 8:00 - 22:00","downloaded":"2018-08-24"}},{"type":"Feature","geometry":{"type":"Point","coordinates":[13.4221021,52.4189949]},"properties":{"id":"13","store":"ALDI Nord","filiale":"","name":"","city":"Berlin","address":"Marienfelder Chaussee  29","postal":"12349","state":"BE","opening_hours":"Mo-Fr: 08:00 - 20:00, Sa: 08:00 - 20:00","downloaded":"2018-08-24"}},{"type":"Feature","geometry":{"type":"Point","coordinates":[13.4662965,52.4349029]},"properties":{"id":"14","store":"ALDI Nord","filiale":"","name":"","city":"Berlin","address":"Rudower Straße 116","postal":"12351","state":"BE","opening_hours":"Mo-Fr: 8:00 - 20:00, Sa: 8:00 - 20:00","downloaded":"2018-08-24"}},{"type":"Feature","geometry":{"type":"Point","coordinates":[13.3137757,52.5070778]},"properties":{"id":"15","store":"ALDI Nord","filiale":"","name":"","city":"Berlin","address":"Leibnizstraße 73","postal":"10625","state":"BE","opening_hours":"Mo-Fr: 08:00 - 21:00, Sa: 08:00 - 21:00","downloaded":"2018-08-24"}},{"type":"Feature","geometry":{"type":"Point","coordinates":[13.3093235,52.5235576]},"properties":{"id":"16","store":"ALDI Nord","filiale":"","name":"","city":"Berlin","address":"Treseburger Straße 2","postal":"10589","state":"BE","opening_hours":"Mo-Fr: 08:00 - 20:00, Sa: 08:00 - 20:00","downloaded":"2018-08-24"}},{"type":"Feature","geometry":{"type":"Point","coordinates":[13.3272782,52.5389867]},"properties":{"id":"17","store":"ALDI Nord","filiale":"","name":"","city":"Berlin","address":"Saatwinkler Damm  8","postal":"13627","state":"BE","opening_hours":"Mo-Fr: 08:00 - 20:00, Sa: 08:00 - 20:00","downloaded":"2018-08-24"}},{"type":"Feature","geometry":{"type":"Point","coordinates":[13.1779668,52.5460774]},"properties":{"id":"18","store":"ALDI Nord","filiale":"","name":"","city":"Berlin","address":"Salchendorfer Weg  1","postal":"13583","state":"BE","opening_hours":"Mo-Fr: 08:00 - 21:00, Sa: 08:00 - 21:00","downloaded":"2018-08-24"}},{"type":"Feature","geometry":{"type":"Point","coordinates":[13.34114,52.46924]},"properties":{"id":"19","store":"ALDI Nord","filiale":"","name":"","city":"Berlin","address":"Dürerplatz  1","postal":"12157","state":"BE","opening_hours":"","downloaded":"2018-08-24"}},{"type":"Feature","geometry":{"type":"Point","coordinates":[13.519417,52.4958384]},"properties":{"id":"20","store":"ALDI Nord","filiale":"","name":"","city":"Berlin","address":"Sewanstraße 259","postal":"10319","state":"BE","opening_hours":"Mo-Fr: 8:00 - 20:00, Sa: 8:00 - 20:00","downloaded":"2018-08-24"}},{"type":"Feature","geometry":{"type":"Point","coordinates":[13.6217771,52.4463127]},"properties":{"id":"21","store":"ALDI Nord","filiale":"","name":"","city":"Berlin","address":"Müggelseedamm  150","postal":"12587","state":"BE","opening_hours":"Mo-Fr: 8:00 - 20:00, Sa: 8:00 - 20:00","downloaded":"2018-08-24"}},{"type":"Feature","geometry":{"type":"Point","coordinates":[13.4592643,52.5056077]},"properties":{"id":"22","store":"ALDI Nord","filiale":"","name":"","city":"Berlin","address":"Revaler Straße 33","postal":"10245","state":"BE","opening_hours":"Mo-Fr: 8:00 - 21:00, Sa: 8:00 - 21:00","downloaded":"2018-08-24"}},{"type":"Feature","geometry":{"type":"Point","coordinates":[13.4456044,52.5111318]},"properties":{"id":"23","store":"ALDI Nord","filiale":"","name":"","city":"Berlin","address":"Rüdersdorfer Straße 65","postal":"10243","state":"BE","opening_hours":"Mo-Fr: 8:00 - 21:00, Sa: 8:00 - 21:00","downloaded":"2018-08-24"}},{"type":"Feature","geometry":{"type":"Point","coordinates":[13.4267288,52.5264221]},"properties":{"id":"24","store":"ALDI Nord","filiale":"","name":"","city":"Berlin","address":"Weinstraße  9","postal":"10249","state":"BE","opening_hours":"Mo-Fr: 8:00 - 20:00, Sa: 8:00 - 20:00","downloaded":"2018-08-24"}},{"type":"Feature","geometry":{"type":"Point","coordinates":[13.3879517,52.549678]},"properties":{"id":"25","store":"ALDI Nord","filiale":"","name":"","city":"Berlin","address":"Badstraße 4","postal":"13357","state":"BE","opening_hours":"Mo-Fr: 08.00 - 21.00, Sa: 08.00 - 21.00","downloaded":"2018-08-24"}},{"type":"Feature","geometry":{"type":"Point","coordinates":[13.378098,52.5424999]},"properties":{"id":"26","store":"ALDI Nord","filiale":"","name":"","city":"Berlin","address":"Gerichtstraße 2-3","postal":"13347","state":"BE","opening_hours":"Mo-Fr: 08:00 - 20:00, Sa: 08:00 - 20:00","downloaded":"2018-08-24"}},{"type":"Feature","geometry":{"type":"Point","coordinates":[13.57801,52.42427]},"properties":{"id":"27","store":"ALDI Nord","filiale":"","name":"","city":"Berlin","address":"Regattastraße  51-53","postal":"12527","state":"BE","opening_hours":"Mo-Fr: 8:00 - 20:00, Sa: 8:00 - 20:00","downloaded":"2018-08-24"}},{"type":"Feature","geometry":{"type":"Point","coordinates":[13.2091335,52.5569068]},"properties":{"id":"28","store":"ALDI Nord","filiale":"","name":"","city":"Berlin","address":"Streitstraße 5-19","postal":"13587","state":"BE","opening_hours":"Mo-Fr: 08:00 - 21:00, Sa: 08:00 - 21:00","downloaded":"2018-08-24"}},{"type":"Feature","geometry":{"type":"Point","coordinates":[13.2907255,52.5004216]},"properties":{"id":"29","store":"ALDI Nord","filiale":"","name":"","city":"Berlin","address":"Heilbronner Straße 26 A","postal":"10711","state":"BE","opening_hours":"Mo-Fr: 08:00 - 21:00, Sa: 08:00 - 21:00","downloaded":"2018-08-24"}},{"type":"Feature","geometry":{"type":"Point","coordinates":[13.2254589,52.6271302]},"properties":{"id":"30","store":"ALDI Nord","filiale":"","name":"","city":"Berlin","address":"Hennigsdorfer Straße 167","postal":"13503","state":"BE","opening_hours":"Mo-Fr: 08:00 - 21:00, Sa: 08:00 - 21:00","downloaded":"2018-08-24"}},{"type":"Feature","geometry":{"type":"Point","coordinates":[13.5900152,52.5170738]},"properties":{"id":"31","store":"ALDI Nord","filiale":"","name":"","city":"Berlin","address":"Gülzower Straße 74","postal":"12619","state":"BE","opening_hours":"Mo-Fr: 08:00 - 20:00, Sa: 08:00 - 20:00","downloaded":"2018-08-24"}},{"type":"Feature","geometry":{"type":"Point","coordinates":[13.5952905,52.5297895]},"properties":{"id":"32","store":"ALDI Nord","filiale":"","name":"","city":"Berlin","address":"Neue Grottkauer Straße 23","postal":"12619","state":"BE","opening_hours":"Mo-Fr: 8:00 - 20:00, Sa: 8:00 - 20:00","downloaded":"2018-08-24"}},{"type":"Feature","geometry":{"type":"Point","coordinates":[13.3017885,52.6267774]},"properties":{"id":"33","store":"ALDI Nord","filiale":"","name":"","city":"Berlin","address":"Am Pfingstberg 25","postal":"13465","state":"BE","opening_hours":"Mo-Fr: 08:00 - 20:00, Sa: 08:00 - 20:00","downloaded":"2018-08-24"}},{"type":"Feature","geometry":{"type":"Point","coordinates":[13.5195849,52.5752968]},"properties":{"id":"34","store":"ALDI Nord","filiale":"","name":"","city":"Berlin","address":"Dorfstraße 22","postal":"13059","state":"BE","opening_hours":"Mo-Fr: 8:00 - 20:00, Sa: 8:00 - 20:00","downloaded":"2018-08-24"}},{"type":"Feature","geometry":{"type":"Point","coordinates":[13.5105559,52.5685691]},"properties":{"id":"35","store":"ALDI Nord","filiale":"","name":"","city":"Berlin","address":"Egon-Erwin-Kisch-Straße 80","postal":"13059","state":"BE","opening_hours":"Do: 12:00 - 18:30, Fr: 12:00 - 18:30, Sa: 12:00 - 18:30","downloaded":"2018-08-24"}},{"type":"Feature","geometry":{"type":"Point","coordinates":[13.5040782,52.5487122]},"properties":{"id":"36","store":"ALDI Nord","filiale":"","name":"","city":"Berlin","address":"Hauptstraße 9 (Storchenhof)","postal":"13055","state":"BE","opening_hours":"Mo-Fr: 8:00 - 20:00, Sa: 8:00 - 20:00","downloaded":"2018-08-24"}},{"type":"Feature","geometry":{"type":"Point","coordinates":[13.4964196,52.535268]},"properties":{"id":"37","store":"ALDI Nord","filiale":"","name":"","city":"Berlin","address":"Landsberger Allee 277(Allee-Center)","postal":"13055","state":"BE","opening_hours":"Mo-Fr: 8:00 - 20:00, Sa: 8:00 - 20:00","downloaded":"2018-08-24"}},{"type":"Feature","geometry":{"type":"Point","coordinates":[13.5061081,52.5644684]},"properties":{"id":"38","store":"ALDI Nord","filiale":"","name":"","city":"Berlin","address":"Prerower Platz 1 (Linden-Center) ","postal":"13051","state":"BE","opening_hours":"Mo-Fr: 8:00 - 20:00, Sa: 8:00 - 20:00","downloaded":"2018-08-24"}},{"type":"Feature","geometry":{"type":"Point","coordinates":[13.506247,52.4425809]},"properties":{"id":"39","store":"ALDI Nord","filiale":"","name":"","city":"Berlin","address":"Winckelmannstraße 38-42","postal":"12487","state":"BE","opening_hours":"Mo-Fr: 8:00 - 20:00, Sa: 8:00 - 20:00","downloaded":"2018-08-24"}},{"type":"Feature","geometry":{"type":"Point","coordinates":[13.5369866,52.4767831]},"properties":{"id":"40","store":"ALDI Nord","filiale":"","name":"","city":"Berlin","address":"Verlängerte Waldowallee  44","postal":"10318","state":"BE","opening_hours":"Mo-Fr: 8:00 - 20:00, Sa: 8:00 - 20:00","downloaded":"2018-08-24"}},{"type":"Feature","geometry":{"type":"Point","coordinates":[13.5767991,52.4901848]},"properties":{"id":"41","store":"ALDI Nord","filiale":"","name":"","city":"Berlin","address":"Chemnitzer Straße 177","postal":"12621","state":"BE","opening_hours":"Mo-Fr: 8:00 - 20:00, Sa: 8:00 - 20:00","downloaded":"2018-08-24"}},{"type":"Feature","geometry":{"type":"Point","coordinates":[13.1248303,52.4708396]},"properties":{"id":"42","store":"ALDI Nord","filiale":"","name":"","city":"Berlin","address":"Ritterfelddamm 200","postal":"14089","state":"BE","opening_hours":"Mo-Fr: 08:00 - 20:00, Sa: 08:00 - 20:00","downloaded":"2018-08-24"}},{"type":"Feature","geometry":{"type":"Point","coordinates":[13.5804559,52.4580224]},"properties":{"id":"43","store":"ALDI Nord","filiale":"","name":"","city":"Berlin","address":"Elcknerplatz 8","postal":"12555","state":"BE","opening_hours":"Mo-Fr: 8:00 - 21:00, Sa: 8:00 - 21:00","downloaded":"2018-08-24"}},{"type":"Feature","geometry":{"type":"Point","coordinates":[13.5856096,52.4422745]},"properties":{"id":"44","store":"ALDI Nord","filiale":"","name":"","city":"Berlin","address":"Müggelheimer Straße 36","postal":"12555","state":"BE","opening_hours":"Mo-Fr: 8:00 - 20:00, Sa: 8:00 - 20:00","downloaded":"2018-08-24"}},{"type":"Feature","geometry":{"type":"Point","coordinates":[13.4315013,52.5020327]},"properties":{"id":"45","store":"ALDI Nord","filiale":"","name":"","city":"Berlin","address":"Eisenbahnstraße 42","postal":"10997","state":"BE","opening_hours":"Mo-Fr: 08:00 - 20:00, Sa: 08:00 - 20:00","downloaded":"2018-08-24"}},{"type":"Feature","geometry":{"type":"Point","coordinates":[13.4215379,52.4867992]},"properties":{"id":"46","store":"ALDI Nord","filiale":"","name":"","city":"Berlin","address":"Hasenheide   108","postal":"10967","state":"BE","opening_hours":"Mo-Fr: 08:00 - 20:00, Sa: 08:00 - 20:00","downloaded":"2018-08-24"}},{"type":"Feature","geometry":{"type":"Point","coordinates":[13.3751664,52.4906425]},"properties":{"id":"47","store":"ALDI Nord","filiale":"","name":"","city":"Berlin","address":"Kreuzbergstraße 39","postal":"10965","state":"BE","opening_hours":"Mo-Fr: 08:00 - 21:00, Sa: 08:00 - 21:00","downloaded":"2018-08-24"}},{"type":"Feature","geometry":{"type":"Point","coordinates":[13.4088801,52.50393]},"properties":{"id":"48","store":"ALDI Nord","filiale":"","name":"","city":"Berlin","address":"Oranienstraße 140-142","postal":"10969","state":"BE","opening_hours":"Mo-Fr: 08:00 - 21:00, Sa: 08:00 - 21:00","downloaded":"2018-08-24"}},{"type":"Feature","geometry":{"type":"Point","coordinates":[13.36734,52.43462]},"properties":{"id":"49","store":"ALDI Nord","filiale":"","name":"","city":"Berlin","address":"Haynauer Straße 76-80","postal":"12249","state":"BE","opening_hours":"Mo-Fr: 08:00 - 20:00, Sa: 08:00 - 20:00","downloaded":"2018-08-24"}},{"type":"Feature","geometry":{"type":"Point","coordinates":[13.3292344,52.4291304]},"properties":{"id":"50","store":"ALDI Nord","filiale":"","name":"","city":"Berlin","address":"Lankwitzer Straße 20-24","postal":"12209","state":"BE","opening_hours":"Mo-Fr: 08:00 - 21:00, Sa: 08:00 - 21:00","downloaded":"2018-08-24"}},{"type":"Feature","geometry":{"type":"Point","coordinates":[13.5150897,52.5047852]},"properties":{"id":"51","store":"ALDI Nord","filiale":"","name":"","city":"Berlin","address":"Alfred-Kowalke-Straße 2","postal":"10315","state":"BE","opening_hours":"Mo-Fr: 8:00 - 20:00, Sa: 8:00 - 20:00","downloaded":"2018-08-24"}},{"type":"Feature","geometry":{"type":"Point","coordinates":[13.4738877,52.5142282]},"properties":{"id":"52","store":"ALDI Nord","filiale":"","name":"","city":"Berlin","address":"Frankfurter Allee 117(Ring-Center II)","postal":"10365","state":"BE","opening_hours":"Mo-Fr: 8:00 - 21:00, Sa: 8:00 - 21:00","downloaded":"2018-08-24"}},{"type":"Feature","geometry":{"type":"Point","coordinates":[13.4814941,52.5119899]},"properties":{"id":"53","store":"ALDI Nord","filiale":"","name":"","city":"Berlin","address":"Frankfurter Allee 144","postal":"10365","state":"BE","opening_hours":"Mo-Fr: 8:00 - 20:00, Sa: 8:00 - 20:00","downloaded":"2018-08-24"}},{"type":"Feature","geometry":{"type":"Point","coordinates":[13.48391,52.52273]},"properties":{"id":"54","store":"ALDI Nord","filiale":"","name":"","city":"Berlin","address":"Josef-Orlopp-Straße 22-24","postal":"10367","state":"BE","opening_hours":"Mo-Fr: 8:00 - 20:00, Sa: 8:00 - 20:00","downloaded":"2018-08-24"}},{"type":"Feature","geometry":{"type":"Point","coordinates":[13.4583691,52.5267601]},"properties":{"id":"55","store":"ALDI Nord","filiale":"","name":"","city":"Berlin","address":"Storkower Straße 176","postal":"10369","state":"BE","opening_hours":"Mo-Fr: 8:00 - 20:00, Sa: 8:00 - 20:00","downloaded":"2018-08-24"}},{"type":"Feature","geometry":{"type":"Point","coordinates":[13.412669,52.4014755]},"properties":{"id":"56","store":"ALDI Nord","filiale":"","name":"","city":"Berlin","address":"Töpchiner Weg 193","postal":"12309","state":"BE","opening_hours":"Mo-Fr: 08:00 - 21:00, Sa: 08:00 - 21:00","downloaded":"2018-08-24"}},{"type":"Feature","geometry":{"type":"Point","coordinates":[13.4018065,52.3861657]},"properties":{"id":"57","store":"ALDI Nord","filiale":"","name":"","city":"Berlin","address":"Zescher Straße 3-5","postal":"12307","state":"BE","opening_hours":"Mo-Fr: 08:00 - 20:00, Sa: 08:00 - 20:00","downloaded":"2018-08-24"}},{"type":"Feature","geometry":{"type":"Point","coordinates":[13.3146046,52.4199802]},"properties":{"id":"58","store":"ALDI Nord","filiale":"","name":"","city":"Berlin","address":"Hildburghauser Straße 248","postal":"12207","state":"BE","opening_hours":"Mo-Fr: 08:00 - 21:00, Sa: 08:00 - 21:00","downloaded":"2018-08-24"}},{"type":"Feature","geometry":{"type":"Point","coordinates":[13.3040264,52.4270343]},"properties":{"id":"59","store":"ALDI Nord","filiale":"","name":"","city":"Berlin","address":"Lausanner Straße  83","postal":"12205","state":"BE","opening_hours":"Mo-Fr: 08:00 - 21:00, Sa: 08:00 - 21:00","downloaded":"2018-08-24"}},{"type":"Feature","geometry":{"type":"Point","coordinates":[13.2948393,52.445669]},"properties":{"id":"60","store":"ALDI Nord","filiale":"","name":"","city":"Berlin","address":"Unter den Eichen 97","postal":"12203","state":"BE","opening_hours":"Mo-Fr: 08:00 - 22:00, Sa: 08:00 - 22:00","downloaded":"2018-08-24"}},{"type":"Feature","geometry":{"type":"Point","coordinates":[13.60539,52.48723]},"properties":{"id":"61","store":"ALDI Nord","filiale":"","name":"","city":"Berlin","address":"Hultschiner Damm  140-142","postal":"12623","state":"BE","opening_hours":"Mo-Fr: 8:00 - 20:00, Sa: 8:00 - 20:00","downloaded":"2018-08-24"}},{"type":"Feature","geometry":{"type":"Point","coordinates":[13.3905821,52.4413074]},"properties":{"id":"62","store":"ALDI Nord","filiale":"","name":"","city":"Berlin","address":"Alt-Mariendorf 16","postal":"12107","state":"BE","opening_hours":"Mo-Fr: 08:00 - 21:00, Sa: 08:00 - 21:00","downloaded":"2018-08-24"}},{"type":"Feature","geometry":{"type":"Point","coordinates":[13.3791016,52.4298712]},"properties":{"id":"63","store":"ALDI Nord","filiale":"","name":"","city":"Berlin","address":"Wilhelm-von-Siemens-Straße  13","postal":"12277","state":"BE","opening_hours":"Mo-Fr: 08:00 - 20:00, Sa: 08:00 - 20:00","downloaded":"2018-08-24"}},{"type":"Feature","geometry":{"type":"Point","coordinates":[13.3915762,52.4188262]},"properties":{"id":"64","store":"ALDI Nord","filiale":"","name":"","city":"Berlin","address":"Richard-Tauber-Damm  6","postal":"12277","state":"BE","opening_hours":"Mo-Fr: 08:00 - 21:00, Sa: 08:00 - 21:00","downloaded":"2018-08-24"}},{"type":"Feature","geometry":{"type":"Point","coordinates":[13.3552923,52.5990726]},"properties":{"id":"65","store":"ALDI Nord","filiale":"","name":"","city":"Berlin","address":"Senftenberger Ring  15","postal":"13439","state":"BE","opening_hours":"Mo-Fr: 08:00 - 20:00, Sa: 08:00 - 20:00","downloaded":"2018-08-24"}},{"type":"Feature","geometry":{"type":"Point","coordinates":[13.578386,52.566694]},"properties":{"id":"66","store":"ALDI Nord","filiale":"","name":"","city":"Berlin","address":"Havemannstraße 33","postal":"12689","state":"BE","opening_hours":"Mo-Fr: 8:00 - 20:00, Sa: 8:00 - 20:00","downloaded":"2018-08-24"}},{"type":"Feature","geometry":{"type":"Point","coordinates":[13.5344533,52.5250563]},"properties":{"id":"67","store":"ALDI Nord","filiale":"","name":"","city":"Berlin","address":"Marzahner Chaussee 200","postal":"12681","state":"BE","opening_hours":"Mo-Fr: 8:00 - 20:00, Sa: 8:00 - 20:00","downloaded":"2018-08-24"}},{"type":"Feature","geometry":{"type":"Point","coordinates":[13.590525,52.504536]},"properties":{"id":"68","store":"ALDI Nord","filiale":"","name":"","city":"Berlin","address":"Alt Kaulsdorf  64","postal":"12621","state":"BE","opening_hours":"Mo-Fr: 8:00 - 20:00, Sa: 8:00 - 20:00","downloaded":"2018-08-24"}},{"type":"Feature","geometry":{"type":"Point","coordinates":[13.5651005,52.543799]},"properties":{"id":"69","store":"ALDI Nord","filiale":"","name":"","city":"Berlin","address":"Landsberger Allee 494","postal":"12685","state":"BE","opening_hours":"Mo-Fr: 8:00 - 20:00, Sa: 8:00 - 20:00","downloaded":"2018-08-24"}},{"type":"Feature","geometry":{"type":"Point","coordinates":[13.6085639,52.5400443]},"properties":{"id":"70","store":"ALDI Nord","filiale":"","name":"","city":"Berlin","address":"Tangermünder Straße 125","postal":"12627","state":"BE","opening_hours":"Mo-Fr: 8:00 - 20:00, Sa: 8:00 - 20:00","downloaded":"2018-08-24"}},{"type":"Feature","geometry":{"type":"Point","coordinates":[13.3810452,52.5105092]},"properties":{"id":"71","store":"ALDI Nord","filiale":"","name":"","city":"Berlin","address":"( Mall of Berlin ) - Leipziger Platz 12","postal":"10117","state":"BE","opening_hours":"Mo-Fr: 9:00 - 21:00, Sa: 9:00 - 21:00","downloaded":"2018-08-24"}},{"type":"Feature","geometry":{"type":"Point","coordinates":[13.4235853,52.5217767]},"properties":{"id":"72","store":"ALDI Nord","filiale":"","name":"","city":"Berlin","address":"Berolinastraße 7a","postal":"10178","state":"BE","opening_hours":"Mo-Fr: 08:00 - 20:00, Sa: 08:00 - 20:00","downloaded":"2018-08-24"}},{"type":"Feature","geometry":{"type":"Point","coordinates":[13.4161454,52.5063191]},"properties":{"id":"73","store":"ALDI Nord","filiale":"","name":"","city":"Berlin","address":"Heinrich-Heine-Platz  8-12","postal":"10179","state":"BE","opening_hours":"Mo-Fr: 08:00 - 21:00, Sa: 08:00 - 21:00","downloaded":"2018-08-24"}},{"type":"Feature","geometry":{"type":"Point","coordinates":[13.3587099,52.5376168]},"properties":{"id":"74","store":"ALDI Nord","filiale":"","name":"","city":"Berlin","address":"Friedrich-Krause-Ufer 37 - 38","postal":"13353","state":"BE","opening_hours":"Mo-Fr: 08:00 - 20:00, Sa: 08:00 - 20:00","downloaded":"2018-08-24"}},{"type":"Feature","geometry":{"type":"Point","coordinates":[13.3173801,52.52852]},"properties":{"id":"75","store":"ALDI Nord","filiale":"","name":"","city":"Berlin","address":"Huttenstraße 41 - 44","postal":"10553","state":"BE","opening_hours":"Mo-Fr: 08:00 - 21:00, Sa: 08:00 - 21:00","downloaded":"2018-08-24"}},{"type":"Feature","geometry":{"type":"Point","coordinates":[13.3640499,52.52424]},"properties":{"id":"76","store":"ALDI Nord","filiale":"","name":"","city":"Berlin","address":"Invalidenstraße 59","postal":"10557","state":"BE","opening_hours":"Mo-Fr: 08:00 - 21:00, Sa: 08:00 - 21:00","downloaded":"2018-08-24"}},{"type":"Feature","geometry":{"type":"Point","coordinates":[13.4618913,52.4703361]},"properties":{"id":"77","store":"ALDI Nord","filiale":"","name":"","city":"Berlin","address":"Grenzallee 4 L","postal":"12057","state":"BE","opening_hours":"Mo-Fr: 8:00 - 21:00, Sa: 8:00 - 21:00","downloaded":"2018-08-24"}},{"type":"Feature","geometry":{"type":"Point","coordinates":[13.42742,52.47406]},"properties":{"id":"78","store":"ALDI Nord","filiale":"","name":"","city":"Berlin","address":"Hermannstraße 72","postal":"12049","state":"BE","opening_hours":"Mo-Fr: 08:00 - 22:00, Sa: 08:00 - 22:00","downloaded":"2018-08-24"}},{"type":"Feature","geometry":{"type":"Point","coordinates":[13.4358774,52.4798766]},"properties":{"id":"79","store":"ALDI Nord","filiale":"","name":"","city":"Berlin","address":"Karl-Marx-Straße 92-98","postal":"12043","state":"BE","opening_hours":"Mo-Fr: 08:00 - 21:00, Sa: 08:00 - 21:00","downloaded":"2018-08-24"}},{"type":"Feature","geometry":{"type":"Point","coordinates":[13.4431185,52.468806]},"properties":{"id":"80","store":"ALDI Nord","filiale":"","name":"","city":"Berlin","address":"Karl-Marx-Straße 231","postal":"12055","state":"BE","opening_hours":"Mo-Fr: 08:00 - 21:00, Sa: 08:00 - 21:00","downloaded":"2018-08-24"}},{"type":"Feature","geometry":{"type":"Point","coordinates":[13.4305392,52.4922936]},"properties":{"id":"81","store":"ALDI Nord","filiale":"","name":"","city":"Berlin","address":"Liberdastraße 5","postal":"12047","state":"BE","opening_hours":"Mo-Fr: 08:00 - 22:00, Sa: 08:00 - 22:00","downloaded":"2018-08-24"}},{"type":"Feature","geometry":{"type":"Point","coordinates":[13.4221841,52.4656051]},"properties":{"id":"82","store":"ALDI Nord","filiale":"","name":"","city":"Berlin","address":"Silbersteinstraße 146","postal":"12051","state":"BE","opening_hours":"Mo-Fr: 08:00 - 22:00, Sa: 08:00 - 22:00","downloaded":"2018-08-24"}},{"type":"Feature","geometry":{"type":"Point","coordinates":[13.4959945,52.4650434]},"properties":{"id":"83","store":"ALDI Nord","filiale":"","name":"","city":"Berlin","address":"Köpenicker Landstraße  296","postal":"12437","state":"BE","opening_hours":"Mo-Fr: 8:00 - 20:00, Sa: 8:00 - 20:00","downloaded":"2018-08-24"}},{"type":"Feature","geometry":{"type":"Point","coordinates":[13.5125089,52.4692807]},"properties":{"id":"84","store":"ALDI Nord","filiale":"","name":"","city":"Berlin","address":"Rummelsburger Straße 16","postal":"12459","state":"BE","opening_hours":"Mo-Fr: 8:00 - 21:00, Sa: 8:00 - 21:00","downloaded":"2018-08-24"}},{"type":"Feature","geometry":{"type":"Point","coordinates":[13.418626,52.5716342]},"properties":{"id":"85","store":"ALDI Nord","filiale":"","name":"","city":"Berlin","address":" Damerowstraße 8","postal":"13187","state":"BE","opening_hours":"Mo-Fr: 8:00 - 20:00, Sa: 8:00 - 20:00","downloaded":"2018-08-24"}},{"type":"Feature","geometry":{"type":"Point","coordinates":[13.4021022,52.588961]},"properties":{"id":"86","store":"ALDI Nord","filiale":"","name":"","city":"Berlin","address":"Dietzgenstraße 86","postal":"13156","state":"BE","opening_hours":"Mo-Fr: 8:00 - 21:00, Sa: 8:00 - 21:00","downloaded":"2018-08-24"}},{"type":"Feature","geometry":{"type":"Point","coordinates":[13.4118647,52.5573387]},"properties":{"id":"87","store":"ALDI Nord","filiale":"","name":"","city":"Berlin","address":"Esplanade 9","postal":"13187","state":"BE","opening_hours":"Mo-Fr: 8:00 - 20:00, Sa: 8:00 - 20:00","downloaded":"2018-08-24"}},{"type":"Feature","geometry":{"type":"Point","coordinates":[13.4343362,52.6120914]},"properties":{"id":"88","store":"ALDI Nord","filiale":"","name":"","city":"Berlin","address":"Hauptstraße 37","postal":"13127","state":"BE","opening_hours":"Mo-Fr: 08:00 - 20:00, Sa: 08:00 - 20:00","downloaded":"2018-08-24"}},{"type":"Feature","geometry":{"type":"Point","coordinates":[13.4228412,52.5612001]},"properties":{"id":"89","store":"ALDI Nord","filiale":"","name":"","city":"Berlin","address":"Neumannstraße 13","postal":"13189","state":"BE","opening_hours":"Mo-Fr: 8:00 - 20:00, Sa: 8:00 - 20:00","downloaded":"2018-08-24"}},{"type":"Feature","geometry":{"type":"Point","coordinates":[13.3815524,52.5729669]},"properties":{"id":"90","store":"ALDI Nord","filiale":"","name":"","city":"Berlin","address":"Straße vor Schönholz 21","postal":"13158","state":"BE","opening_hours":"Mo-Fr: 8:00 - 20:00, Sa: 8:00 - 20:00","downloaded":"2018-08-24"}},{"type":"Feature","geometry":{"type":"Point","coordinates":[13.4649121,52.5970512]},"properties":{"id":"91","store":"ALDI Nord","filiale":"","name":"","city":"Berlin","address":"Treseburger Straße 26","postal":"13129","state":"BE","opening_hours":"Mo-Fr: 8:00 - 20:00, Sa: 8:00 - 20:00","downloaded":"2018-08-24"}},{"type":"Feature","geometry":{"type":"Point","coordinates":[13.4637052,52.5455854]},"properties":{"id":"92","store":"ALDI Nord","filiale":"","name":"","city":"Berlin","address":"Chopinstraße 28","postal":"13088","state":"BE","opening_hours":"Mo-Fr: 8:00 - 20:00, Sa: 8:00 - 20:00","downloaded":"2018-08-24"}},{"type":"Feature","geometry":{"type":"Point","coordinates":[13.4498755,52.5643668]},"properties":{"id":"93","store":"ALDI Nord","filiale":"","name":"","city":"Berlin","address":"Rennbahnstraße  65","postal":"13086","state":"BE","opening_hours":"Mo-Fr: 8:00 - 20:00, Sa: 8:00 - 20:00","downloaded":"2018-08-24"}},{"type":"Feature","geometry":{"type":"Point","coordinates":[13.4371397,52.5413508]},"properties":{"id":"94","store":"ALDI Nord","filiale":"","name":"","city":"Berlin","address":"Greifswalder Straße 168","postal":"10409","state":"BE","opening_hours":"Mo-Fr: 8:00 - 21:00, Sa: 8:00 - 21:00","downloaded":"2018-08-24"}},{"type":"Feature","geometry":{"type":"Point","coordinates":[13.4342614,52.5502399]},"properties":{"id":"95","store":"ALDI Nord","filiale":"","name":"","city":"Berlin","address":"Ostseestraße 25","postal":"10409","state":"BE","opening_hours":"Mo-Fr: 8:00 - 21:00, Sa: 8:00 - 21:00","downloaded":"2018-08-24"}},{"type":"Feature","geometry":{"type":"Point","coordinates":[13.4016161,52.5489658]},"properties":{"id":"96","store":"ALDI Nord","filiale":"","name":"","city":"Berlin","address":"Schwedter Straße 83","postal":"10437","state":"BE","opening_hours":"Mo-Fr: 8:00 - 21:00, Sa: 8:00 - 21:00","downloaded":"2018-08-24"}},{"type":"Feature","geometry":{"type":"Point","coordinates":[13.714691,52.4315366]},"properties":{"id":"97","store":"ALDI Nord","filiale":"","name":"","city":"Berlin","address":"Fürstenwalder Allee 326","postal":"12589","state":"BE","opening_hours":"Mo-Fr: 8:00 - 20:00, Sa: 8:00 - 20:00","downloaded":"2018-08-24"}},{"type":"Feature","geometry":{"type":"Point","coordinates":[13.3280339,52.570694]},"properties":{"id":"98","store":"ALDI Nord","filiale":"","name":"","city":"Berlin","address":"Ollenhauerstraße 106","postal":"13403","state":"BE","opening_hours":"Mo-Fr: 08:00 - 21:00, Sa: 08:00 - 21:00","downloaded":"2018-08-24"}},{"type":"Feature","geometry":{"type":"Point","coordinates":[13.36687,52.56435]},"properties":{"id":"99","store":"ALDI Nord","filiale":"","name":"","city":"Berlin","address":"Pankower Allee  17-19","postal":"13409","state":"BE","opening_hours":"Mo-Fr: 08:00 - 20:00, Sa: 08:00 - 20:00","downloaded":"2018-08-24"}},{"type":"Feature","geometry":{"type":"Point","coordinates":[13.3468608,52.5808062]},"properties":{"id":"100","store":"ALDI Nord","filiale":"","name":"","city":"Berlin","address":"Roedernallee 15-16","postal":"13407","state":"BE","opening_hours":"Mo-Fr: 08:00 - 20:00, Sa: 08:00 - 20:00","downloaded":"2018-08-24"}},{"type":"Feature","geometry":{"type":"Point","coordinates":[13.4954434,52.4305936]},"properties":{"id":"101","store":"ALDI Nord","filiale":"","name":"","city":"Berlin","address":"Kanalstraße 8","postal":"12357","state":"BE","opening_hours":"Mo-Fr: 08:00 - 21:00, Sa: 08:00 - 21:00","downloaded":"2018-08-24"}},{"type":"Feature","geometry":{"type":"Point","coordinates":[13.4868467,52.4965609]},"properties":{"id":"102","store":"ALDI Nord","filiale":"","name":"","city":"Berlin","address":"Hauptstraße 36","postal":"10317","state":"BE","opening_hours":"Mo-Fr: 08:00 - 20:00, Sa: 08:00 - 20:00","downloaded":"2018-08-24"}},{"type":"Feature","geometry":{"type":"Point","coordinates":[13.495006,52.499556]},"properties":{"id":"103","store":"ALDI Nord","filiale":"","name":"","city":"Berlin","address":"Rummelsburger Straße 98","postal":"10319","state":"BE","opening_hours":"Mo-Fr: 08:00 - 20:00, Sa: 08:00 - 20:00","downloaded":"2018-08-24"}},{"type":"Feature","geometry":{"type":"Point","coordinates":[13.216982,52.4396603]},"properties":{"id":"104","store":"ALDI Nord","filiale":"","name":"","city":"Berlin","address":"Breisgauer Straße 1b","postal":"14129","state":"BE","opening_hours":"Mo-Fr: 08:00 - 21:00, Sa: 08:00 - 21:00","downloaded":"2018-08-24"}},{"type":"Feature","geometry":{"type":"Point","coordinates":[13.3109418,52.4796107]},"properties":{"id":"105","store":"ALDI Nord","filiale":"","name":"","city":"Berlin","address":"Mecklenburgische Straße 23a-24","postal":"14197","state":"BE","opening_hours":"Mo-Fr: 08:00 - 22:00, Sa: 08:00 - 22:00","downloaded":"2018-08-24"}},{"type":"Feature","geometry":{"type":"Point","coordinates":[13.2904624,52.4733306]},"properties":{"id":"106","store":"ALDI Nord","filiale":"","name":"","city":"Berlin","address":"Warnemünder Straße 8","postal":"14199","state":"BE","opening_hours":"Mo-Fr: 08:00 - 21:00, Sa: 08:00 - 21:00","downloaded":"2018-08-24"}},{"type":"Feature","geometry":{"type":"Point","coordinates":[13.356855,52.4861644]},"properties":{"id":"107","store":"ALDI Nord","filiale":"","name":"","city":"Berlin","address":"Kaiser-Wilhelm-Platz  2","postal":"10827","state":"BE","opening_hours":"Mo-Fr: 08:00 - 21:00, Sa: 08:00 - 21:00","downloaded":"2018-08-24"}},{"type":"Feature","geometry":{"type":"Point","coordinates":[13.2485401,52.5411417]},"properties":{"id":"108","store":"ALDI Nord","filiale":"","name":"","city":"Berlin","address":"Paulsternstraße 20","postal":"13599","state":"BE","opening_hours":"Mo-Fr: 08:00 - 21:00, Sa: 08:00 - 21:00","downloaded":"2018-08-24"}},{"type":"Feature","geometry":{"type":"Point","coordinates":[13.1680163,52.5333358]},"properties":{"id":"109","store":"ALDI Nord","filiale":"","name":"","city":"Berlin","address":"Brunsbütteler Damm 201-203","postal":"13581","state":"BE","opening_hours":"Mo-Fr: 08:00 - 21:00, Sa: 08:00 - 21:00","downloaded":"2018-08-24"}},{"type":"Feature","geometry":{"type":"Point","coordinates":[13.2378129,52.5270885]},"properties":{"id":"110","store":"ALDI Nord","filiale":"","name":"","city":"Berlin","address":"Charlottenburger Chaussee 30","postal":"13597","state":"BE","opening_hours":"Mo-Fr: 8:00 - 21:00, Sa: 8:00 - 21:00","downloaded":"2018-08-24"}},{"type":"Feature","geometry":{"type":"Point","coordinates":[13.1967485,52.5393592]},"properties":{"id":"111","store":"ALDI Nord","filiale":"","name":"","city":"Berlin","address":"Galenstraße  35","postal":"13597","state":"BE","opening_hours":"Mo-Fr: 08:00 - 21:00, Sa: 08:00 - 21:00","downloaded":"2018-08-24"}},{"type":"Feature","geometry":{"type":"Point","coordinates":[13.1784644,52.5179002]},"properties":{"id":"112","store":"ALDI Nord","filiale":"","name":"","city":"Berlin","address":"Heerstrasse  332","postal":"13593","state":"BE","opening_hours":"Mo-Fr: 08:00 - 21:00, Sa: 08:00 - 21:00","downloaded":"2018-08-24"}},{"type":"Feature","geometry":{"type":"Point","coordinates":[13.3269031,52.4545481]},"properties":{"id":"113","store":"ALDI Nord","filiale":"","name":"","city":"Berlin","address":"Albrechtstraße 16-18","postal":"12167","state":"BE","opening_hours":"Mo-Fr: 08:00 - 21:00, Sa: 08:00 - 21:00","downloaded":"2018-08-24"}},{"type":"Feature","geometry":{"type":"Point","coordinates":[13.3382876,52.4561268]},"properties":{"id":"114","store":"ALDI Nord","filiale":"","name":"","city":"Berlin","address":"Bismarckstraße 17","postal":"12169","state":"BE","opening_hours":"Mo-Fr: 08:00 - 21:00, Sa: 08:00 - 21:00","downloaded":"2018-08-24"}},{"type":"Feature","geometry":{"type":"Point","coordinates":[13.3264178,52.4643896]},"properties":{"id":"115","store":"ALDI Nord","filiale":"","name":"","city":"Berlin","address":"Schloßstraße/Gutsmuthsstraße 4-5","postal":"12163","state":"BE","opening_hours":"Mo-Fr: 08:00 - 22:00, Sa: 08:00 - 22:00","downloaded":"2018-08-24"}},{"type":"Feature","geometry":{"type":"Point","coordinates":[13.2867545,52.5918781]},"properties":{"id":"116","store":"ALDI Nord","filiale":"","name":"","city":"Berlin","address":"Buddestraße 32","postal":"13507","state":"BE","opening_hours":"Mo-Fr: 08:00 - 21:00, Sa: 08:00 - 21:00","downloaded":"2018-08-24"}},{"type":"Feature","geometry":{"type":"Point","coordinates":[13.2981806,52.5781282]},"properties":{"id":"117","store":"ALDI Nord","filiale":"","name":"","city":"Berlin","address":"Holzhauser Straße 26 - 32","postal":"13509","state":"BE","opening_hours":"Mo-Fr: 08:00 - 21:00, Sa: 08:00 - 21:00","downloaded":"2018-08-24"}},{"type":"Feature","geometry":{"type":"Point","coordinates":[13.3847726,52.4715255]},"properties":{"id":"118","store":"ALDI Nord","filiale":"","name":"","city":"Berlin","address":"Hoeppnerstraße 3-13","postal":"12101","state":"BE","opening_hours":"Mo-Fr: 08:00 - 21:00, Sa: 08:00 - 21:00","downloaded":"2018-08-24"}},{"type":"Feature","geometry":{"type":"Point","coordinates":[13.3620921,52.4518388]},"properties":{"id":"119","store":"ALDI Nord","filiale":"","name":"","city":"Berlin","address":"Röblingstraße 118-124","postal":"12105","state":"BE","opening_hours":"Mo-Fr: 08:00 - 20:00, Sa: 08:00 - 20:00","downloaded":"2018-08-24"}},{"type":"Feature","geometry":{"type":"Point","coordinates":[13.3739918,52.4682676]},"properties":{"id":"120","store":"ALDI Nord","filiale":"","name":"","city":"Berlin","address":"Schöneberger Straße 28","postal":"12103","state":"BE","opening_hours":"Mo-Fr: 08:00 - 21:00, Sa: 08:00 - 21:00","downloaded":"2018-08-24"}},{"type":"Feature","geometry":{"type":"Point","coordinates":[13.3840084,52.4588251]},"properties":{"id":"121","store":"ALDI Nord","filiale":"","name":"","city":"Berlin","address":"Tempelhofer Damm 198","postal":"12099","state":"BE","opening_hours":"Mo-Fr: 08:00 - 21:00, Sa: 08:00 - 21:00","downloaded":"2018-08-24"}},{"type":"Feature","geometry":{"type":"Point","coordinates":[13.3196153,52.6104288]},"properties":{"id":"122","store":"ALDI Nord","filiale":"","name":"","city":"Berlin","address":"Oraniendamm 46","postal":"13469","state":"BE","opening_hours":"Mo-Fr: 8:00 - 21:00, Sa: 8:00 - 21:00","downloaded":"2018-08-24"}},{"type":"Feature","geometry":{"type":"Point","coordinates":[13.1573618,52.4187982]},"properties":{"id":"123","store":"ALDI Nord","filiale":"","name":"","city":"Berlin","address":"Königstraße 56/57","postal":"14109","state":"BE","opening_hours":"Mo-Fr: 08:00 - 20:00, Sa: 08:00 - 20:00","downloaded":"2018-08-24"}},{"type":"Feature","geometry":{"type":"Point","coordinates":[13.348,52.55241]},"properties":{"id":"124","store":"ALDI Nord","filiale":"","name":"","city":"Berlin","address":"Müllerstraße 128","postal":"13349","state":"BE","opening_hours":"Mo-Fr: 08:00 - 21:00, Sa: 08:00 - 21:00","downloaded":"2018-08-24"}},{"type":"Feature","geometry":{"type":"Point","coordinates":[13.4482881,52.5501683]},"properties":{"id":"125","store":"ALDI Nord","filiale":"","name":"","city":"Berlin","address":"Börnestraße 25","postal":"13086","state":"BE","opening_hours":"Mo-Fr: 8:00 - 21:00, Sa: 8:00 - 21:00","downloaded":"2018-08-24"}},{"type":"Feature","geometry":{"type":"Point","coordinates":[13.2803844,52.5236353]},"properties":{"id":"126","store":"ALDI Nord","filiale":"","name":"","city":"Berlin","address":"Fürstenbrunner Weg 50","postal":"14059","state":"BE","opening_hours":"Mo-Fr: 08:00 - 20:00, Sa: 08:00 - 20:00","downloaded":"2018-08-24"}},{"type":"Feature","geometry":{"type":"Point","coordinates":[13.2717514,52.508496]},"properties":{"id":"127","store":"ALDI Nord","filiale":"","name":"","city":"Berlin","address":"Theodor-Heuss-Platz  7","postal":"14052","state":"BE","opening_hours":"Mo-Fr: 08:00 - 21:00, Sa: 08:00 - 21:00","downloaded":"2018-08-24"}},{"type":"Feature","geometry":{"type":"Point","coordinates":[13.332398,52.4933981]},"properties":{"id":"128","store":"ALDI Nord","filiale":"","name":"","city":"Berlin","address":"Prager Platz  1 - 3","postal":"10779","state":"BE","opening_hours":"Mo-Fr: 08:00 - 21:00, Sa: 08:00 - 21:00","downloaded":"2018-08-24"}},{"type":"Feature","geometry":{"type":"Point","coordinates":[13.3358886,52.4786999]},"properties":{"id":"129","store":"ALDI Nord","filiale":"","name":"","city":"Berlin","address":"Wexstraße 16-18","postal":"10715","state":"BE","opening_hours":"Mo-Fr: 08:00 - 21:00, Sa: 08:00 - 21:00","downloaded":"2018-08-24"}},{"type":"Feature","geometry":{"type":"Point","coordinates":[13.3346364,52.5890234]},"properties":{"id":"130","store":"ALDI Nord","filiale":"","name":"","city":"Berlin","address":"Oranienburger Straße 57-58","postal":"13437","state":"BE","opening_hours":"","downloaded":"2018-08-24"}},{"type":"Feature","geometry":{"type":"Point","coordinates":[13.34037,52.60507]},"properties":{"id":"131","store":"ALDI Nord","filiale":"","name":"","city":"Berlin","address":"Wittenauer Straße 88-100","postal":"13435","state":"BE","opening_hours":"Mo-Fr: 8:00 - 20:00, Sa: 8:00 - 20:00","downloaded":"2018-08-24"}},{"type":"Feature","geometry":{"type":"Point","coordinates":[13.21305,52.42744]},"properties":{"id":"132","store":"ALDI Nord","filiale":"","name":"","city":"Berlin","address":"Potsdamer Chaussee 33","postal":"14129","state":"BE","opening_hours":"Mo-Fr: 08:00 - 21:00, Sa: 08:00 - 21:00","downloaded":"2018-08-24"}},{"type":"Feature","geometry":{"type":"Point","coordinates":[13.271348,52.439201]},"properties":{"id":"133","store":"ALDI Nord","filiale":"","name":"","city":"Berlin","address":"Sundgauer Straße 83-85","postal":"14169","state":"BE","opening_hours":"Mo-Fr: 09:00 - 18:30, Sa: 08:00 - 16:00","downloaded":"2018-08-24"}},{"type":"Feature","geometry":{"type":"Point","coordinates":[13.2686835,52.408309]},"properties":{"id":"134","store":"ALDI Nord","filiale":"","name":"","city":"Berlin","address":"Teltower Damm  281","postal":"14167","state":"BE","opening_hours":"Mo-Fr: 08:00 - 21:00, Sa: 08:00 - 21:00","downloaded":"2018-08-24"}},{"type":"Feature","geometry":{"type":"Point","coordinates":[13.253458,52.4495811]},"properties":{"id":"135","store":"ALDI Nord","filiale":"","name":"","city":"Berlin","address":"Wilskistraße  47b","postal":"14169","state":"BE","opening_hours":"Mo-Fr: 08:00 - 20:00, Sa: 08:00 - 20:00","downloaded":"2018-08-24"}},{"type":"Feature","geometry":{"type":"Point","coordinates":[12.8504996,52.9443852]},"properties":{"id":"136","store":"ALDI Nord","filiale":"","name":"","city":"Alt Ruppin","address":"Wulkower Chaussee 12","postal":"16827","state":"BR","opening_hours":"Mo-Fr: 08:00 - 20:00, Sa: 08:00 - 20:00","downloaded":"2018-08-24"}},{"type":"Feature","geometry":{"type":"Point","coordinates":[14.014199,53.0160124]},"properties":{"id":"137","store":"ALDI Nord","filiale":"","name":"","city":"Angermünde","address":"Schwedter Str. 21","postal":"16278","state":"BR","opening_hours":"Mo-Fr: 8:00 - 20:00, Sa: 8:00 - 20:00","downloaded":"2018-08-24"}},{"type":"Feature","geometry":{"type":"Point","coordinates":[14.0419893,52.7883886]},"properties":{"id":"138","store":"ALDI Nord","filiale":"","name":"","city":"Bad Freienwalde","address":"Am Polderdamm 2","postal":"16259","state":"BR","opening_hours":"Mo-Fr: 8:00 - 20:00, Sa: 8:00 - 20:00","downloaded":"2018-08-24"}},{"type":"Feature","geometry":{"type":"Point","coordinates":[13.3933731,51.5166593]},"properties":{"id":"139","store":"ALDI Nord","filiale":"","name":"","city":"Bad Liebenwerda","address":"Nordring  11 b","postal":"04924","state":"BR","opening_hours":"Mo-Fr: 08:00 - 20:00, Sa: 08:00 - 20:00","downloaded":"2018-08-24"}},{"type":"Feature","geometry":{"type":"Point","coordinates":[13.5046035,52.0428316]},"properties":{"id":"140","store":"ALDI Nord","filiale":"","name":"","city":"Baruth","address":"Rudolf-Breitscheid-Str.  27","postal":"15837","state":"BR","opening_hours":"Mo-Fr: 8:00 - 20:00, Sa: 8:00 - 20:00","downloaded":"2018-08-24"}},{"type":"Feature","geometry":{"type":"Point","coordinates":[12.9701434,52.2383982]},"properties":{"id":"141","store":"ALDI Nord","filiale":"","name":"","city":"Beelitz","address":"Clara-Zetkin-Straße 36a","postal":"14547","state":"BR","opening_hours":"Mo-Fr: 08:00 - 20:00, Sa: 08:00 - 20:00","downloaded":"2018-08-24"}},{"type":"Feature","geometry":{"type":"Point","coordinates":[14.24177,52.18169]},"properties":{"id":"142","store":"ALDI Nord","filiale":"","name":"","city":"Beeskow","address":"Fürstenwalder Straße 10 f ","postal":"15484","state":"BR","opening_hours":"Mo-Fr: 8:00 - 20:00, Sa: 8:00 - 20:00","downloaded":"2018-08-24"}},{"type":"Feature","geometry":{"type":"Point","coordinates":[13.5701899,52.6729766]},"properties":{"id":"143","store":"ALDI Nord","filiale":"","name":"","city":"Bernau","address":"Krokusstr. 3 ","postal":"16321","state":"BR","opening_hours":"Mo-Fr: 8:00 - 20:00, Sa: 8:00 - 20:00","downloaded":"2018-08-24"}},{"type":"Feature","geometry":{"type":"Point","coordinates":[13.5566272,52.6809362]},"properties":{"id":"144","store":"ALDI Nord","filiale":"","name":"","city":"Bernau, OT Schönow","address":"Potsdamer Straße 1 ","postal":"16321","state":"BR","opening_hours":"Mo-Fr: 8:00 - 20:00, Sa: 8:00 - 20:00","downloaded":"2018-08-24"}},{"type":"Feature","geometry":{"type":"Point","coordinates":[13.6333375,52.2424091]},"properties":{"id":"145","store":"ALDI Nord","filiale":"","name":"","city":"Bestsensee","address":"Hauptstr.  45","postal":"15741","state":"BR","opening_hours":"Mo-Fr: 8:00 - 20:00, Sa: 8:00 - 20:00","downloaded":"2018-08-24"}},{"type":"Feature","geometry":{"type":"Point","coordinates":[13.6722591,52.7541467]},"properties":{"id":"146","store":"ALDI Nord","filiale":"","name":"","city":"Biesenthal","address":"Bahnhofstr. 77 ","postal":"16359","state":"BR","opening_hours":"Mo-Fr: 8:00 - 20:00, Sa: 8:00 - 20:00","downloaded":"2018-08-24"}},{"type":"Feature","geometry":{"type":"Point","coordinates":[13.3984074,52.3372578]},"properties":{"id":"147","store":"ALDI Nord","filiale":"","name":"","city":"Blankenfelde","address":"Blankenfelder Dorfstraße 65","postal":"15827","state":"BR","opening_hours":"Mo-Fr: 08:00 - 20:00, Sa: 08:00 - 20:00","downloaded":"2018-08-24"}},{"type":"Feature","geometry":{"type":"Point","coordinates":[12.5691094,52.4030075]},"properties":{"id":"148","store":"ALDI Nord","filiale":"","name":"","city":"Brandenburg","address":"Geschwister-Scholl-Straße 30","postal":"14776","state":"BR","opening_hours":"Mo-Fr: 08:00 - 20:00, Sa: 08:00 - 20:00","downloaded":"2018-08-24"}},{"type":"Feature","geometry":{"type":"Point","coordinates":[12.5449203,52.420661]},"properties":{"id":"149","store":"ALDI Nord","filiale":"","name":"","city":"Brandenburg","address":"Willi-Sänger-Str. 66 ","postal":"14770","state":"BR","opening_hours":"Mo-Fr: 08:00 - 20:00, Sa: 08:00 - 18:00","downloaded":"2018-08-24"}},{"type":"Feature","geometry":{"type":"Point","coordinates":[12.9987441,52.5823954]},"properties":{"id":"150","store":"ALDI Nord","filiale":"","name":"","city":"Brieselang","address":"Hans-Klakow-Str. 4","postal":"14656","state":"BR","opening_hours":"Mo-Fr: 08:00 - 20:00, Sa: 08:00 - 20:00","downloaded":"2018-08-24"}},{"type":"Feature","geometry":{"type":"Point","coordinates":[14.3129901,51.75671]},"properties":{"id":"151","store":"ALDI Nord","filiale":"","name":"","city":"Cottbus","address":"Karl-Liebknecht-Straße 81","postal":"03046","state":"BR","opening_hours":"Mo-Fr: 08:00 - 21:00, Sa: 08:00 - 21:00","downloaded":"2018-08-24"}},{"type":"Feature","geometry":{"type":"Point","coordinates":[14.31807,51.7815523]},"properties":{"id":"152","store":"ALDI Nord","filiale":"","name":"","city":"Cottbus","address":"Limberger Straße 1","postal":"03044","state":"BR","opening_hours":"Mo-Fr: 08:00 - 20:00, Sa: 08:00 - 20:00","downloaded":"2018-08-24"}},{"type":"Feature","geometry":{"type":"Point","coordinates":[14.317329,51.715764]},"properties":{"id":"153","store":"ALDI Nord","filiale":"","name":"","city":"Cottbus","address":"Sachsendorfer Straße  5","postal":"03058","state":"BR","opening_hours":"Mo-Fr: 8:00 - 20:00, Sa: 8:00 - 20:00","downloaded":"2018-08-24"}},{"type":"Feature","geometry":{"type":"Point","coordinates":[14.3579157,51.7662819]},"properties":{"id":"154","store":"ALDI Nord","filiale":"","name":"","city":"Cottbus","address":"Stadtring 8","postal":"03042","state":"BR","opening_hours":"Mo-Fr: 8:00 - 20:00, Sa: 8:00 - 20:00","downloaded":"2018-08-24"}},{"type":"Feature","geometry":{"type":"Point","coordinates":[14.32374,51.74008]},"properties":{"id":"155","store":"ALDI Nord","filiale":"","name":"","city":"Cottbus","address":"Welzower Straße 26a","postal":"03048","state":"BR","opening_hours":"Mo-Fr: 08:00 - 21:00, Sa: 08:00 - 21:00","downloaded":"2018-08-24"}},{"type":"Feature","geometry":{"type":"Point","coordinates":[14.3467089,51.7582688]},"properties":{"id":"156","store":"ALDI Nord","filiale":"","name":"","city":"Cottbus","address":"Willy-Brandt-Straße 19 a","postal":"03050","state":"BR","opening_hours":"Mo-Fr: 8:00 - 20:00, Sa: 8:00 - 20:00","downloaded":"2018-08-24"}},{"type":"Feature","geometry":{"type":"Point","coordinates":[13.6728872,52.52071]},"properties":{"id":"157","store":"ALDI Nord","filiale":"","name":"","city":"Dahlwitz-Hoppegarten","address":"Lindenallee 2 ","postal":"15366","state":"BR","opening_hours":"Mo-Fr: 8:00 - 20:00, Sa: 8:00 - 20:00","downloaded":"2018-08-24"}},{"type":"Feature","geometry":{"type":"Point","coordinates":[13.0601839,52.5327373]},"properties":{"id":"158","store":"ALDI Nord","filiale":"","name":"","city":"Dallgow-Döberitz","address":"Artilleriepark 2","postal":"14624","state":"BR","opening_hours":"Mo-Fr: 08:00 - 21:00, Sa: 08:00 - 21:00","downloaded":"2018-08-24"}},{"type":"Feature","geometry":{"type":"Point","coordinates":[13.5642308,51.6370476]},"properties":{"id":"159","store":"ALDI Nord","filiale":"","name":"","city":"Doberlug-Kirchhain","address":"Gerberstraße 16-23","postal":"03253","state":"BR","opening_hours":"Mo-Fr: 8:00 - 20:00, Sa: 8:00 - 20:00","downloaded":"2018-08-24"}},{"type":"Feature","geometry":{"type":"Point","coordinates":[13.8159099,52.8356567]},"properties":{"id":"160","store":"ALDI Nord","filiale":"","name":"","city":"Eberswalde","address":"Bergerstraße 113","postal":"16225","state":"BR","opening_hours":"Mo-Fr: 8:00 - 20:00, Sa: 8:00 - 20:00","downloaded":"2018-08-24"}},{"type":"Feature","geometry":{"type":"Point","coordinates":[14.6381781,52.1475859]},"properties":{"id":"161","store":"ALDI Nord","filiale":"","name":"","city":"Eisenhüttenstadt","address":"Karl-Marx-Str. 34 ","postal":"15890","state":"BR","opening_hours":"Mo-Fr: 8:00 - 20:00, Sa: 8:00 - 20:00","downloaded":"2018-08-24"}},{"type":"Feature","geometry":{"type":"Point","coordinates":[13.5344776,51.4655876]},"properties":{"id":"162","store":"ALDI Nord","filiale":"","name":"","city":"Elsterwerda","address":"Lauchhammer Straße 60","postal":"04910","state":"BR","opening_hours":"Mo-Fr: 8:00 - 20:00, Sa: 8:00 - 20:00","downloaded":"2018-08-24"}},{"type":"Feature","geometry":{"type":"Point","coordinates":[13.75477,52.42941]},"properties":{"id":"163","store":"ALDI Nord","filiale":"","name":"","city":"Erkner","address":"Julius-Rütgers-Str.  1","postal":"15537","state":"BR","opening_hours":"Mo-Fr: 08:00 - 20:00, Sa: 08:00 - 20:00","downloaded":"2018-08-24"}},{"type":"Feature","geometry":{"type":"Point","coordinates":[13.093679,52.5602442]},"properties":{"id":"164","store":"ALDI Nord","filiale":"","name":"","city":"Falkensee","address":"Bahnhofstr.  68-72","postal":"14612","state":"BR","opening_hours":"Mo-Fr: 08:00 - 20:00, Sa: 08:00 - 20:00","downloaded":"2018-08-24"}},{"type":"Feature","geometry":{"type":"Point","coordinates":[13.128167,52.5612796]},"properties":{"id":"165","store":"ALDI Nord","filiale":"","name":"","city":"Falkensee","address":"Spandauer Str. 112","postal":"14612","state":"BR","opening_hours":"Mo-Fr: 08:00 - 21:00, Sa: 08:00 - 21:00","downloaded":"2018-08-24"}},{"type":"Feature","geometry":{"type":"Point","coordinates":[13.7068579,51.634628]},"properties":{"id":"166","store":"ALDI Nord","filiale":"","name":"","city":"Finsterwalde","address":"Berliner Straße 20 B","postal":"03238","state":"BR","opening_hours":"Mo-Fr: 8:00 - 20:00, Sa: 8:00 - 20:00","downloaded":"2018-08-24"}},{"type":"Feature","geometry":{"type":"Point","coordinates":[14.6341616,51.7455334]},"properties":{"id":"167","store":"ALDI Nord","filiale":"","name":"","city":"Forst","address":"Charlottenstraße 92","postal":"03149","state":"BR","opening_hours":"Mo-Fr: 8:00 - 20:00, Sa: 8:00 - 20:00","downloaded":"2018-08-24"}},{"type":"Feature","geometry":{"type":"Point","coordinates":[14.5267044,52.3441482]},"properties":{"id":"168","store":"ALDI Nord","filiale":"","name":"","city":"Frankfurt/Oder","address":"August-Bebel-Str. 1a","postal":"15234","state":"BR","opening_hours":"Mo-Fr: 8:00 - 20:00, Sa: 8:00 - 20:00","downloaded":"2018-08-24"}},{"type":"Feature","geometry":{"type":"Point","coordinates":[14.5468441,52.353343]},"properties":{"id":"169","store":"ALDI Nord","filiale":"","name":"","city":"Frankfurt/Oder","address":"Bergstraße 2","postal":"15230","state":"BR","opening_hours":"Mo-Fr: 8:00 - 20:00, Sa: 8:00 - 20:00","downloaded":"2018-08-24"}},{"type":"Feature","geometry":{"type":"Point","coordinates":[14.5262263,52.3648899]},"properties":{"id":"170","store":"ALDI Nord","filiale":"","name":"","city":"Frankfurt/Oder","address":"Berliner Chaussee  101a","postal":"15234","state":"BR","opening_hours":"Mo-Fr: 8:00 - 20:00, Sa: 8:00 - 20:00","downloaded":"2018-08-24"}},{"type":"Feature","geometry":{"type":"Point","coordinates":[14.5506664,52.3430389]},"properties":{"id":"171","store":"ALDI Nord","filiale":"","name":"","city":"Frankfurt/Oder","address":"Karl-Marx-Str. 193","postal":"15230","state":"BR","opening_hours":"Mo-Fr: 8:00 - 20:00, Sa: 8:00 - 20:00","downloaded":"2018-08-24"}},{"type":"Feature","geometry":{"type":"Point","coordinates":[13.7437306,52.4969233]},"properties":{"id":"172","store":"ALDI Nord","filiale":"","name":"","city":"Fredersdorf-Vogelsdorf","address":"Frankf. Chaussee 48 (Multicenter) ","postal":"15370","state":"BR","opening_hours":"Mo-Fr: 8:00 - 20:00, Sa: 8:00 - 20:00","downloaded":"2018-08-24"}},{"type":"Feature","geometry":{"type":"Point","coordinates":[13.7462822,52.5423847]},"properties":{"id":"173","store":"ALDI Nord","filiale":"","name":"","city":"Fredersdorf-Vogelsdorf","address":"Fredersdorfer Chaussee 77","postal":"15370","state":"BR","opening_hours":"Mo-Fr: 08:00 - 20:00, Sa: 08:00 - 20:00","downloaded":"2018-08-24"}},{"type":"Feature","geometry":{"type":"Point","coordinates":[12.5778451,52.7365815]},"properties":{"id":"174","store":"ALDI Nord","filiale":"","name":"","city":"Friesack","address":"Klessener Str. 36 ","postal":"14662","state":"BR","opening_hours":"Mo-Fr: 08:00 - 20:00, Sa: 08:00 - 20:00","downloaded":"2018-08-24"}},{"type":"Feature","geometry":{"type":"Point","coordinates":[13.1400827,53.1707056]},"properties":{"id":"175","store":"ALDI Nord","filiale":"","name":"","city":"Fürstenberg","address":"H.-G.-Bock-Str. 6","postal":"16798","state":"BR","opening_hours":"Mo-Fr: 08:00 - 20:00, Sa: 08:00 - 20:00","downloaded":"2018-08-24"}},{"type":"Feature","geometry":{"type":"Point","coordinates":[14.0772376,52.3367716]},"properties":{"id":"176","store":"ALDI Nord","filiale":"","name":"","city":"Fürstenwalde","address":"Alte Langewahler Chaussee 4","postal":"15517","state":"BR","opening_hours":"Mo-Fr: 08:00 - 20:00, Sa: 08:00 - 20:00","downloaded":"2018-08-24"}},{"type":"Feature","geometry":{"type":"Point","coordinates":[14.0710654,52.3661892]},"properties":{"id":"177","store":"ALDI Nord","filiale":"","name":"","city":"Fürstenwalde","address":"Ehrenfried-Jopp-Str. 57","postal":"15517","state":"BR","opening_hours":"Mo-Fr: 8:00 - 20:00, Sa: 8:00 - 20:00","downloaded":"2018-08-24"}},{"type":"Feature","geometry":{"type":"Point","coordinates":[13.7208996,52.3958736]},"properties":{"id":"178","store":"ALDI Nord","filiale":"","name":"","city":"Gosen","address":"Am Müggelpark  41-45","postal":"15537","state":"BR","opening_hours":"Mo-Fr: 8:00 - 20:00, Sa: 8:00 - 20:00","downloaded":"2018-08-24"}},{"type":"Feature","geometry":{"type":"Point","coordinates":[13.1600227,53.0023375]},"properties":{"id":"179","store":"ALDI Nord","filiale":"","name":"","city":"Gransee","address":"Berliner Straße 21 ","postal":"16775","state":"BR","opening_hours":"Mo-Fr: 08:00 - 20:00, Sa: 08:00 - 20:00","downloaded":"2018-08-24"}},{"type":"Feature","geometry":{"type":"Point","coordinates":[14.0124169,51.5907639]},"properties":{"id":"180","store":"ALDI Nord","filiale":"","name":"","city":"Großräschen","address":"IFA-Park 2","postal":"01983","state":"BR","opening_hours":"Mo-Fr: 8:00 - 20:00, Sa: 8:00 - 20:00","downloaded":"2018-08-24"}},{"type":"Feature","geometry":{"type":"Point","coordinates":[14.7038245,51.9555699]},"properties":{"id":"181","store":"ALDI Nord","filiale":"","name":"","city":"Guben","address":"Karl-Marx-Straße 96","postal":"03172","state":"BR","opening_hours":"Mo-Fr: 8:00 - 20:00, Sa: 8:00 - 20:00","downloaded":"2018-08-24"}},{"type":"Feature","geometry":{"type":"Point","coordinates":[13.2237414,51.6903647]},"properties":{"id":"182","store":"ALDI Nord","filiale":"","name":"","city":"Herzberg","address":"Leipziger Str. 11","postal":"04916","state":"BR","opening_hours":"Mo-Fr: 08:00 - 20:00, Sa: 08:00 - 20:00","downloaded":"2018-08-24"}},{"type":"Feature","geometry":{"type":"Point","coordinates":[13.2686219,52.7053673]},"properties":{"id":"183","store":"ALDI Nord","filiale":"","name":"","city":"Hohen Neuendorf","address":"Berliner Chaussee 7","postal":"16556","state":"BR","opening_hours":"Mo-Fr: 8:00 - 20:00, Sa: 8:00 - 20:00","downloaded":"2018-08-24"}},{"type":"Feature","geometry":{"type":"Point","coordinates":[13.2965549,52.6668249]},"properties":{"id":"184","store":"ALDI Nord","filiale":"","name":"","city":"Hohen Neuendorf","address":"Schönfließer Str.  25 E","postal":"16540","state":"BR","opening_hours":"Mo-Fr: 08:00 - 21:00, Sa: 08:00 - 21:00","downloaded":"2018-08-24"}},{"type":"Feature","geometry":{"type":"Point","coordinates":[13.6353254,52.5366161]},"properties":{"id":"185","store":"ALDI Nord","filiale":"","name":"","city":"Hönow b. Berlin","address":"Mahlsdorfer Str.56 ","postal":"15366","state":"BR","opening_hours":"Mo-Fr: 8:00 - 20:00, Sa: 8:00 - 20:00","downloaded":"2018-08-24"}},{"type":"Feature","geometry":{"type":"Point","coordinates":[13.7557778,52.9746413]},"properties":{"id":"186","store":"ALDI Nord","filiale":"","name":"","city":"Joachimsthal","address":"Töpferstraße 47","postal":"16247","state":"BR","opening_hours":"Mo-Fr: 8:00 - 20:00, Sa: 8:00 - 20:00","downloaded":"2018-08-24"}},{"type":"Feature","geometry":{"type":"Point","coordinates":[13.0841159,51.9967777]},"properties":{"id":"187","store":"ALDI Nord","filiale":"","name":"","city":"Jüterbog","address":"Promenade ","postal":"14913","state":"BR","opening_hours":"Mo-Fr: 8:00 - 20:00, Sa: 8:00 - 20:00","downloaded":"2018-08-24"}},{"type":"Feature","geometry":{"type":"Point","coordinates":[11.7469324,53.1606086]},"properties":{"id":"188","store":"ALDI Nord","filiale":"","name":"","city":"Karstädt","address":"Postliner Str. 19","postal":"19357","state":"BR","opening_hours":"Mo-Fr: 08:00 - 20:00, Sa: 08:00 - 20:00","downloaded":"2018-08-24"}},{"type":"Feature","geometry":{"type":"Point","coordinates":[14.2591123,51.7521666]},"properties":{"id":"189","store":"ALDI Nord","filiale":"","name":"","city":"Kolkwitz","address":"Berliner Straße 113 d","postal":"03099","state":"BR","opening_hours":"Mo-Fr: 8:00 - 20:00, Sa: 8:00 - 20:00","downloaded":"2018-08-24"}},{"type":"Feature","geometry":{"type":"Point","coordinates":[13.6827939,52.2958035]},"properties":{"id":"190","store":"ALDI Nord","filiale":"","name":"","city":"Königs Wusterhausen","address":"Iris-Hahs-Hoffstetter-Str. 1","postal":"15712","state":"BR","opening_hours":"Mo-Fr: 08:00 - 20:00, Sa: 08:00 - 20:00","downloaded":"2018-08-24"}},{"type":"Feature","geometry":{"type":"Point","coordinates":[13.62441,52.295949]},"properties":{"id":"191","store":"ALDI Nord","filiale":"","name":"","city":"Königs Wusterhausen","address":"Luckenwalder Straße 6","postal":"15711","state":"BR","opening_hours":"Mo-Fr: 8:00 - 20:00, Sa: 8:00 - 20:00","downloaded":"2018-08-24"}},{"type":"Feature","geometry":{"type":"Point","coordinates":[12.3972698,52.9536627]},"properties":{"id":"192","store":"ALDI Nord","filiale":"","name":"","city":"Kyritz","address":"Pritzwalker Str.  46 b","postal":"16866","state":"BR","opening_hours":"Mo-Fr: 08:00 - 20:00, Sa: 08:00 - 20:00","downloaded":"2018-08-24"}},{"type":"Feature","geometry":{"type":"Point","coordinates":[13.5243644,52.6050202]},"properties":{"id":"193","store":"ALDI Nord","filiale":"","name":"","city":"Lindenberg","address":"Bucher Weg 2","postal":"16357","state":"BR","opening_hours":"Mo-Fr: 8:00 - 20:00, Sa: 8:00 - 20:00","downloaded":"2018-08-24"}},{"type":"Feature","geometry":{"type":"Point","coordinates":[13.1578081,52.8982689]},"properties":{"id":"194","store":"ALDI Nord","filiale":"","name":"","city":"Löwenberg","address":"Eberswalder Str.  6","postal":"16775","state":"BR","opening_hours":"Mo-Fr: 08:00 - 20:00, Sa: 08:00 - 20:00","downloaded":"2018-08-24"}},{"type":"Feature","geometry":{"type":"Point","coordinates":[13.8750313,51.9416668]},"properties":{"id":"195","store":"ALDI Nord","filiale":"","name":"","city":"Lübben","address":"Parkstraße 2","postal":"15907","state":"BR","opening_hours":"Mo-Fr: 08:00 - 20:00, Sa: 08:00 - 20:00","downloaded":"2018-08-24"}},{"type":"Feature","geometry":{"type":"Point","coordinates":[13.9381406,51.8667297]},"properties":{"id":"196","store":"ALDI Nord","filiale":"","name":"","city":"Lübbenau","address":"Am Kaufland 3","postal":"03222","state":"BR","opening_hours":"Mo-Fr: 08:00 - 20:00, Sa: 08:00 - 20:00","downloaded":"2018-08-24"}},{"type":"Feature","geometry":{"type":"Point","coordinates":[13.7026432,51.855991]},"properties":{"id":"197","store":"ALDI Nord","filiale":"","name":"","city":"Luckau","address":"Berliner Str. 19","postal":"15926","state":"BR","opening_hours":"Mo-Fr: 8:00 - 20:00, Sa: 8:00 - 20:00","downloaded":"2018-08-24"}},{"type":"Feature","geometry":{"type":"Point","coordinates":[13.1725462,52.0919914]},"properties":{"id":"198","store":"ALDI Nord","filiale":"","name":"","city":"Luckenwalde","address":"Beelitzer Str.  15-19","postal":"14943","state":"BR","opening_hours":"Mo-Fr: 8:00 - 20:00, Sa: 8:00 - 20:00","downloaded":"2018-08-24"}},{"type":"Feature","geometry":{"type":"Point","coordinates":[13.2439063,52.3110621]},"properties":{"id":"199","store":"ALDI Nord","filiale":"","name":"","city":"Ludwigsfelde","address":"Brandenburgische Straße 1","postal":"14974","state":"BR","opening_hours":"Mo-Fr: 08:00 - 20:00, Sa: 08:00 - 20:00","downloaded":"2018-08-24"}},{"type":"Feature","geometry":{"type":"Point","coordinates":[13.434488,52.3585348]},"properties":{"id":"200","store":"ALDI Nord","filiale":"","name":"","city":"Mahlow","address":"Am Lückefeld  88","postal":"15831","state":"BR","opening_hours":"Mo-Fr: 08:00 - 20:00, Sa: 08:00 - 20:00","downloaded":"2018-08-24"}},{"type":"Feature","geometry":{"type":"Point","coordinates":[13.0290505,52.3058993]},"properties":{"id":"201","store":"ALDI Nord","filiale":"","name":"","city":"Michendorf","address":"Luckenwalder Straße 2","postal":"14552","state":"BR","opening_hours":"Mo-Fr: 08:00 - 20:00, Sa: 08:00 - 20:00","downloaded":"2018-08-24"}},{"type":"Feature","geometry":{"type":"Point","coordinates":[13.3797557,52.6658452]},"properties":{"id":"202","store":"ALDI Nord","filiale":"","name":"","city":"Mühlenbeck","address":"Hauptstr. 34","postal":"16567","state":"BR","opening_hours":"Mo-Fr: 08:00 - 20:00, Sa: 08:00 - 20:00","downloaded":"2018-08-24"}},{"type":"Feature","geometry":{"type":"Point","coordinates":[14.1229721,52.50448]},"properties":{"id":"203","store":"ALDI Nord","filiale":"","name":"","city":"Müncheberg","address":"Karl-Marx-Str. 42 ","postal":"15374","state":"BR","opening_hours":"Mo-Fr: 8:00 - 20:00, Sa: 8:00 - 20:00","downloaded":"2018-08-24"}},{"type":"Feature","geometry":{"type":"Point","coordinates":[12.8593031,52.6099989]},"properties":{"id":"204","store":"ALDI Nord","filiale":"","name":"","city":"Nauen","address":"Schillerstraße 1","postal":"14641","state":"BR","opening_hours":"Mo-Fr: 08:00 - 20:00, Sa: 08:00 - 20:00","downloaded":"2018-08-24"}},{"type":"Feature","geometry":{"type":"Point","coordinates":[13.701759,52.5381929]},"properties":{"id":"205","store":"ALDI Nord","filiale":"","name":"","city":"Neuenhagen","address":"Altlandsberger Chaussee/Planstraße 1 ","postal":"15366","state":"BR","opening_hours":"Mo-Fr: 8:00 - 20:00, Sa: 8:00 - 20:00","downloaded":"2018-08-24"}},{"type":"Feature","geometry":{"type":"Point","coordinates":[12.7848302,52.9167993]},"properties":{"id":"206","store":"ALDI Nord","filiale":"","name":"","city":"Neuruppin","address":"Neustädter Straße 26 ","postal":"16816","state":"BR","opening_hours":"","downloaded":"2018-08-24"}},{"type":"Feature","geometry":{"type":"Point","coordinates":[12.8014157,52.9171605]},"properties":{"id":"207","store":"ALDI Nord","filiale":"","name":"","city":"Neuruppin","address":"Trenckmannstraße 16","postal":"16816","state":"BR","opening_hours":"Mo-Fr: 07:00 - 21:00, Sa: 07:00 - 21:00","downloaded":"2018-08-24"}},{"type":"Feature","geometry":{"type":"Point","coordinates":[13.1023497,52.3518092]},"properties":{"id":"208","store":"ALDI Nord","filiale":"","name":"","city":"Nuthetal","address":"Arthur-Scheunert-Allee  69","postal":"14558","state":"BR","opening_hours":"Mo-Fr: 08:00 - 21:00, Sa: 08:00 - 21:00","downloaded":"2018-08-24"}},{"type":"Feature","geometry":{"type":"Point","coordinates":[13.2022351,52.7519221]},"properties":{"id":"209","store":"ALDI Nord","filiale":"","name":"","city":"Oranienburg","address":"Germendorfer Allee  20","postal":"16515","state":"BR","opening_hours":"Mo-Fr: 08:00 - 20:00, Sa: 08:00 - 20:00","downloaded":"2018-08-24"}},{"type":"Feature","geometry":{"type":"Point","coordinates":[13.2399261,52.7789592]},"properties":{"id":"210","store":"ALDI Nord","filiale":"","name":"","city":"Oranienburg","address":"Granseer Str. 12","postal":"16515","state":"BR","opening_hours":"Mo-Fr: 08:00 - 20:00, Sa: 08:00 - 20:00","downloaded":"2018-08-24"}},{"type":"Feature","geometry":{"type":"Point","coordinates":[11.8379229,53.0641824]},"properties":{"id":"211","store":"ALDI Nord","filiale":"","name":"","city":"Perleberg","address":"Schwarzer Weg 9","postal":"19348","state":"BR","opening_hours":"","downloaded":"2018-08-24"}},{"type":"Feature","geometry":{"type":"Point","coordinates":[13.8059036,52.5315033]},"properties":{"id":"212","store":"ALDI Nord","filiale":"","name":"","city":"Petershagen/Eggersdorf","address":"Am Fuchsbau  4","postal":"15345","state":"BR","opening_hours":"Mo-Fr: 8:00 - 20:00, Sa: 8:00 - 20:00","downloaded":"2018-08-24"}},{"type":"Feature","geometry":{"type":"Point","coordinates":[13.0783989,52.4089598]},"properties":{"id":"213","store":"ALDI Nord","filiale":"","name":"","city":"Potsdam","address":"Berliner Straße 47-48","postal":"14467","state":"BR","opening_hours":"Mo-Fr: 08:00 - 21:00, Sa: 08:00 - 21:00","downloaded":"2018-08-24"}},{"type":"Feature","geometry":{"type":"Point","coordinates":[13.0534677,52.4251947]},"properties":{"id":"214","store":"ALDI Nord","filiale":"","name":"","city":"Potsdam","address":"Georg-Hermann-Allee 145 ","postal":"14469","state":"BR","opening_hours":"","downloaded":"2018-08-24"}},{"type":"Feature","geometry":{"type":"Point","coordinates":[13.1253042,52.3817691]},"properties":{"id":"215","store":"ALDI Nord","filiale":"","name":"","city":"Potsdam","address":"Großbeerenstraße 215/219","postal":"14480","state":"BR","opening_hours":"Mo-Fr: 08:00 - 20:00, Sa: 08:00 - 20:00","downloaded":"2018-08-24"}},{"type":"Feature","geometry":{"type":"Point","coordinates":[13.0234601,52.41515]},"properties":{"id":"216","store":"ALDI Nord","filiale":"","name":"","city":"Potsdam","address":"Potsdamer Straße  177","postal":"14469","state":"BR","opening_hours":"Mo-Fr: 08:00 - 21:00, Sa: 08:00 - 21:00","downloaded":"2018-08-24"}},{"type":"Feature","geometry":{"type":"Point","coordinates":[13.1062667,52.3854035]},"properties":{"id":"217","store":"ALDI Nord","filiale":"","name":"","city":"Potsdam","address":"Weidendamm 2 ","postal":"14482","state":"BR","opening_hours":"Mo-Fr: 08:00 - 21:00, Sa: 08:00 - 21:00","downloaded":"2018-08-24"}},{"type":"Feature","geometry":{"type":"Point","coordinates":[13.0224201,52.38313]},"properties":{"id":"218","store":"ALDI Nord","filiale":"","name":"","city":"Potsdam","address":"Zeppelinstraße 119","postal":"14471","state":"BR","opening_hours":"Mo-Fr: 08:00 - 21:00, Sa: 08:00 - 21:00","downloaded":"2018-08-24"}},{"type":"Feature","geometry":{"type":"Point","coordinates":[13.8478292,53.3203791]},"properties":{"id":"219","store":"ALDI Nord","filiale":"","name":"","city":"Prenzlau","address":"Neubrandenburger Str. 21 ","postal":"17291","state":"BR","opening_hours":"Mo-Fr: 8:00 - 20:00, Sa: 8:00 - 20:00","downloaded":"2018-08-24"}},{"type":"Feature","geometry":{"type":"Point","coordinates":[12.1787462,53.1575383]},"properties":{"id":"220","store":"ALDI Nord","filiale":"","name":"","city":"Pritzwalk","address":"Am Ring ","postal":"16928","state":"BR","opening_hours":"Mo-Fr: 08:00 - 20:00, Sa: 08:00 - 20:00","downloaded":"2018-08-24"}},{"type":"Feature","geometry":{"type":"Point","coordinates":[13.4586345,52.2950325]},"properties":{"id":"221","store":"ALDI Nord","filiale":"","name":"","city":"Rangsdorf","address":"Birkenweg 2","postal":"15834","state":"BR","opening_hours":"Mo-Fr: 08:00 - 20:00, Sa: 08:00 - 20:00","downloaded":"2018-08-24"}},{"type":"Feature","geometry":{"type":"Point","coordinates":[12.3362751,52.5801954]},"properties":{"id":"222","store":"ALDI Nord","filiale":"","name":"","city":"Rathenow","address":"Milower Landstr. ","postal":"14712","state":"BR","opening_hours":"Mo-Fr: 08:00 - 20:00, Sa: 08:00 - 20:00","downloaded":"2018-08-24"}},{"type":"Feature","geometry":{"type":"Point","coordinates":[12.3512666,52.6182994]},"properties":{"id":"223","store":"ALDI Nord","filiale":"","name":"","city":"Rathenow","address":"R.-Breitscheid-Str. 36","postal":"14712","state":"BR","opening_hours":"Mo-Fr: 08:00 - 20:00, Sa: 08:00 - 20:00","downloaded":"2018-08-24"}},{"type":"Feature","geometry":{"type":"Point","coordinates":[12.8992064,53.0999985]},"properties":{"id":"224","store":"ALDI Nord","filiale":"","name":"","city":"Rheinsberg","address":"Paulshorster Str. 18 ","postal":"16831","state":"BR","opening_hours":"Mo-Fr: 08:00 - 20:00, Sa: 08:00 - 20:00","downloaded":"2018-08-24"}},{"type":"Feature","geometry":{"type":"Point","coordinates":[13.7956946,52.4688428]},"properties":{"id":"225","store":"ALDI Nord","filiale":"","name":"","city":"Rüdersdorf","address":"Bergstraße 1","postal":"15562","state":"BR","opening_hours":"Mo-Fr: 08:00 - 20:00, Sa: 08:00 - 20:00","downloaded":"2018-08-24"}},{"type":"Feature","geometry":{"type":"Point","coordinates":[13.56237,52.36813]},"properties":{"id":"226","store":"ALDI Nord","filiale":"","name":"","city":"Schönefeld","address":"Am Pechpfuhl  8","postal":"12529","state":"BR","opening_hours":"Mo-Fr: 8:00 - 20:00, Sa: 8:00 - 20:00","downloaded":"2018-08-24"}},{"type":"Feature","geometry":{"type":"Point","coordinates":[13.4411204,52.4089109]},"properties":{"id":"227","store":"ALDI Nord","filiale":"","name":"","city":"Schönefeld","address":"Karl-Marx-Str. 36 ","postal":"12529","state":"BR","opening_hours":"Mo-Fr: 08:00 - 20:00, Sa: 08:00 - 20:00","downloaded":"2018-08-24"}},{"type":"Feature","geometry":{"type":"Point","coordinates":[13.7137801,52.4730967]},"properties":{"id":"228","store":"ALDI Nord","filiale":"","name":"","city":"Schöneiche","address":"Woltersdorfer Straße 1 ","postal":"15566","state":"BR","opening_hours":"Mo-Fr: 8:00 - 20:00, Sa: 8:00 - 20:00","downloaded":"2018-08-24"}},{"type":"Feature","geometry":{"type":"Point","coordinates":[13.5916515,52.3640486]},"properties":{"id":"229","store":"ALDI Nord","filiale":"","name":"","city":"Schulzendorf","address":"Ernst-Thälmann-Str. 124","postal":"15732","state":"BR","opening_hours":"Mo-Fr: 8:00 - 21:00, Sa: 8:00 - 21:00","downloaded":"2018-08-24"}},{"type":"Feature","geometry":{"type":"Point","coordinates":[13.870837,51.4678717]},"properties":{"id":"230","store":"ALDI Nord","filiale":"","name":"","city":"Schwarzheide","address":"Schipkauer Straße 13","postal":"01987","state":"BR","opening_hours":"Mo-Fr: 8:00 - 20:00, Sa: 8:00 - 20:00","downloaded":"2018-08-24"}},{"type":"Feature","geometry":{"type":"Point","coordinates":[14.2722404,53.0666716]},"properties":{"id":"231","store":"ALDI Nord","filiale":"","name":"","city":"Schwedt","address":"Landgrabenpark 2","postal":"16303","state":"BR","opening_hours":"Mo-Fr: 8:00 - 20:00, Sa: 8:00 - 18:00","downloaded":"2018-08-24"}},{"type":"Feature","geometry":{"type":"Point","coordinates":[13.6421543,52.1559362]},"properties":{"id":"232","store":"ALDI Nord","filiale":"","name":"","city":"Schwerin","address":"Teupitzer Str. 1","postal":"15755","state":"BR","opening_hours":"Mo-Fr: 8:00 - 20:00, Sa: 8:00 - 20:00","downloaded":"2018-08-24"}},{"type":"Feature","geometry":{"type":"Point","coordinates":[14.3651406,52.5280006]},"properties":{"id":"233","store":"ALDI Nord","filiale":"","name":"","city":"Seelow","address":"Diedersdorfer Str.  12 b ","postal":"15306","state":"BR","opening_hours":"Mo-Fr: 8:00 - 20:00, Sa: 8:00 - 20:00","downloaded":"2018-08-24"}},{"type":"Feature","geometry":{"type":"Point","coordinates":[14.0028632,51.5231993]},"properties":{"id":"234","store":"ALDI Nord","filiale":"","name":"","city":"Senftenberg","address":"Bahnhofstraße 38","postal":"01968","state":"BR","opening_hours":"Mo-Fr: 8:00 - 21:00, Sa: 8:00 - 21:00","downloaded":"2018-08-24"}},{"type":"Feature","geometry":{"type":"Point","coordinates":[14.0029576,51.51678]},"properties":{"id":"235","store":"ALDI Nord","filiale":"","name":"","city":"Senftenberg","address":"Schulstraße 8 b","postal":"01968","state":"BR","opening_hours":"Mo-Fr: 8:00 - 20:00, Sa: 8:00 - 20:00","downloaded":"2018-08-24"}},{"type":"Feature","geometry":{"type":"Point","coordinates":[14.3722237,51.5628173]},"properties":{"id":"236","store":"ALDI Nord","filiale":"","name":"","city":"Spremberg","address":"Grünstraße 3","postal":"03130","state":"BR","opening_hours":"Mo-Fr: 8:00 - 20:00, Sa: 8:00 - 20:00","downloaded":"2018-08-24"}},{"type":"Feature","geometry":{"type":"Point","coordinates":[13.9287156,52.2504527]},"properties":{"id":"237","store":"ALDI Nord","filiale":"","name":"","city":"Storkow","address":"Goethestraße 2","postal":"15859","state":"BR","opening_hours":"Mo-Fr: 8:00 - 20:00, Sa: 8:00 - 20:00","downloaded":"2018-08-24"}},{"type":"Feature","geometry":{"type":"Point","coordinates":[13.9097622,52.5921721]},"properties":{"id":"238","store":"ALDI Nord","filiale":"","name":"","city":"Strausberg","address":"Akazienstr. 1 ","postal":"15344","state":"BR","opening_hours":"Mo-Fr: 8:00 - 20:00, Sa: 8:00 - 20:00","downloaded":"2018-08-24"}},{"type":"Feature","geometry":{"type":"Point","coordinates":[13.8636902,52.5491958]},"properties":{"id":"239","store":"ALDI Nord","filiale":"","name":"","city":"Strausberg","address":"Am Annatal 59 ","postal":"15344","state":"BR","opening_hours":"Mo-Fr: 8:00 - 20:00, Sa: 8:00 - 20:00","downloaded":"2018-08-24"}},{"type":"Feature","geometry":{"type":"Point","coordinates":[13.2914645,52.391369]},"properties":{"id":"240","store":"ALDI Nord","filiale":"","name":"","city":"Teltow","address":"Mahlower Straße 179","postal":"14513","state":"BR","opening_hours":"Mo-Fr: 08:00 - 21:00, Sa: 08:00 - 21:00","downloaded":"2018-08-24"}},{"type":"Feature","geometry":{"type":"Point","coordinates":[13.2381044,52.3955289]},"properties":{"id":"241","store":"ALDI Nord","filiale":"","name":"","city":"Teltow","address":"Saganer Straße 9","postal":"14513","state":"BR","opening_hours":"Mo-Fr: 08:00 - 21:00, Sa: 08:00 - 21:00","downloaded":"2018-08-24"}},{"type":"Feature","geometry":{"type":"Point","coordinates":[13.5007842,53.1083879]},"properties":{"id":"242","store":"ALDI Nord","filiale":"","name":"","city":"Templin","address":"Vietmannsdorfer Str. ","postal":"17268","state":"BR","opening_hours":"Mo-Fr: 8:00 - 20:00, Sa: 8:00 - 20:00","downloaded":"2018-08-24"}},{"type":"Feature","geometry":{"type":"Point","coordinates":[13.1665004,52.6788363]},"properties":{"id":"243","store":"ALDI Nord","filiale":"","name":"","city":"Velten","address":"Rosa-Luxemburg-Str.  22","postal":"16727","state":"BR","opening_hours":"Mo-Fr: 08:00 - 20:00, Sa: 08:00 - 20:00","downloaded":"2018-08-24"}},{"type":"Feature","geometry":{"type":"Point","coordinates":[14.0770591,51.7811832]},"properties":{"id":"244","store":"ALDI Nord","filiale":"","name":"","city":"Vetschau","address":"Cottbuser Straße 13 c","postal":"03226","state":"BR","opening_hours":"Mo-Fr: 8:00 - 20:00, Sa: 8:00 - 20:00","downloaded":"2018-08-24"}},{"type":"Feature","geometry":{"type":"Point","coordinates":[13.4549871,52.7431375]},"properties":{"id":"245","store":"ALDI Nord","filiale":"","name":"","city":"Wandlitz","address":"Berliner Weg 7a","postal":"16348","state":"BR","opening_hours":"Mo-Fr: 8:00 - 20:00, Sa: 8:00 - 20:00","downloaded":"2018-08-24"}},{"type":"Feature","geometry":{"type":"Point","coordinates":[13.4404386,52.6859597]},"properties":{"id":"246","store":"ALDI Nord","filiale":"","name":"","city":"Wandlitz","address":"Hauptstraße 64","postal":"16348","state":"BR","opening_hours":"Mo-Fr: 8:00 - 20:00, Sa: 8:00 - 20:00","downloaded":"2018-08-24"}},{"type":"Feature","geometry":{"type":"Point","coordinates":[12.9392011,52.3636888]},"properties":{"id":"247","store":"ALDI Nord","filiale":"","name":"","city":"Werder","address":"Apfelweg  4","postal":"14542","state":"BR","opening_hours":"Mo-Fr: 08:00 - 21:00, Sa: 08:00 - 21:00","downloaded":"2018-08-24"}},{"type":"Feature","geometry":{"type":"Point","coordinates":[13.7422637,52.6328098]},"properties":{"id":"248","store":"ALDI Nord","filiale":"","name":"","city":"Werneuchen","address":"Freienwalder Str.  45 b","postal":"16356","state":"BR","opening_hours":"Mo-Fr: 8:00 - 20:00, Sa: 8:00 - 20:00","downloaded":"2018-08-24"}},{"type":"Feature","geometry":{"type":"Point","coordinates":[13.6366455,52.3248975]},"properties":{"id":"249","store":"ALDI Nord","filiale":"","name":"","city":"Wildau","address":"Friedrich-Engels-Straße 79","postal":"15745","state":"BR","opening_hours":"Mo-Fr: 8:00 - 20:00, Sa: 8:00 - 20:00","downloaded":"2018-08-24"}},{"type":"Feature","geometry":{"type":"Point","coordinates":[13.6018172,52.3176892]},"properties":{"id":"250","store":"ALDI Nord","filiale":"","name":"","city":"Wildau","address":"Gewerbeparkstraße 4","postal":"15745","state":"BR","opening_hours":"Mo-Fr: 8:00 - 20:00, Sa: 8:00 - 20:00","downloaded":"2018-08-24"}},{"type":"Feature","geometry":{"type":"Point","coordinates":[11.7235578,53.0032933]},"properties":{"id":"251","store":"ALDI Nord","filiale":"","name":"","city":"Wittenberge","address":"Lenzener Chaussee ","postal":"19322","state":"BR","opening_hours":"Mo-Fr: 08:00 - 20:00, Sa: 08:00 - 20:00","downloaded":"2018-08-24"}},{"type":"Feature","geometry":{"type":"Point","coordinates":[12.49379,53.16413]},"properties":{"id":"252","store":"ALDI Nord","filiale":"","name":"","city":"Wittstock","address":"Röbeler Str. 1","postal":"16909","state":"BR","opening_hours":"Mo-Fr: 08:00 - 20:00, Sa: 08:00 - 20:00","downloaded":"2018-08-24"}},{"type":"Feature","geometry":{"type":"Point","coordinates":[12.4796306,53.1563134]},"properties":{"id":"253","store":"ALDI Nord","filiale":"","name":"","city":"Wittstock/Dosse","address":"Papenbrucher Chaussee 2","postal":"16909","state":"BR","opening_hours":"Mo-Fr: 08:00 - 20:00, Sa: 08:00 - 20:00","downloaded":"2018-08-24"}},{"type":"Feature","geometry":{"type":"Point","coordinates":[14.1339234,52.7236105]},"properties":{"id":"254","store":"ALDI Nord","filiale":"","name":"","city":"Wriezen","address":"Heinrich-Lehmpuhl-Str. 25","postal":"16269","state":"BR","opening_hours":"Mo-Fr: 8:00 - 20:00, Sa: 8:00 - 20:00","downloaded":"2018-08-24"}},{"type":"Feature","geometry":{"type":"Point","coordinates":[12.4568799,52.8897967]},"properties":{"id":"255","store":"ALDI Nord","filiale":"","name":"","city":"Wusterhausen","address":"Bahnhofstr. 17","postal":"16868","state":"BR","opening_hours":"","downloaded":"2018-08-24"}},{"type":"Feature","geometry":{"type":"Point","coordinates":[12.9393777,52.5461597]},"properties":{"id":"256","store":"ALDI Nord","filiale":"","name":"","city":"Wustermark","address":"Am Markt 3","postal":"14641","state":"BR","opening_hours":"Mo-Fr: 08:00 - 20:00, Sa: 08:00 - 20:00","downloaded":"2018-08-24"}},{"type":"Feature","geometry":{"type":"Point","coordinates":[13.3248709,52.9702766]},"properties":{"id":"257","store":"ALDI Nord","filiale":"","name":"","city":"Zehdenick","address":"Falkenthaler Chaussee 57 ","postal":"16792","state":"BR","opening_hours":"Mo-Fr: 08:00 - 20:00, Sa: 08:00 - 20:00","downloaded":"2018-08-24"}},{"type":"Feature","geometry":{"type":"Point","coordinates":[13.4586033,52.1959925]},"properties":{"id":"258","store":"ALDI Nord","filiale":"","name":"","city":"Zossen","address":"Straße der Jugend  173","postal":"15806","state":"BR","opening_hours":"Mo-Fr: 8:00 - 20:00, Sa: 8:00 - 20:00","downloaded":"2018-08-24"}},{"type":"Feature","geometry":{"type":"Point","coordinates":[8.618189,53.1843723]},"properties":{"id":"259","store":"ALDI Nord","filiale":"","name":"","city":"Bremen","address":"Hammersbecker Straße 87","postal":"28755","state":"HB","opening_hours":"Mo-Fr: 08:00 - 21:00, Sa: 08:00 - 21:00","downloaded":"2018-08-24"}},{"type":"Feature","geometry":{"type":"Point","coordinates":[8.5723992,53.1981043]},"properties":{"id":"260","store":"ALDI Nord","filiale":"","name":"","city":"Bremen","address":"Schwaneweder Straße 27","postal":"28779","state":"HB","opening_hours":"Mo-Fr: 08:00 - 21:00, Sa: 08:00 - 21:00","downloaded":"2018-08-24"}},{"type":"Feature","geometry":{"type":"Point","coordinates":[8.5697931,53.1799967]},"properties":{"id":"261","store":"ALDI Nord","filiale":"","name":"","city":"Bremen","address":"Weserstrandstraße 17","postal":"28779","state":"HB","opening_hours":"Mo-Fr: 08:00 - 21:00, Sa: 08:00 - 21:00","downloaded":"2018-08-24"}},{"type":"Feature","geometry":{"type":"Point","coordinates":[8.8967137,53.128922]},"properties":{"id":"262","store":"ALDI Nord","filiale":"","name":"","city":"Bremen","address":"Hamfhofsweg 59","postal":"28357","state":"HB","opening_hours":"Mo-Fr: 08:00 - 20:00, Sa: 08:00 - 20:00","downloaded":"2018-08-24"}},{"type":"Feature","geometry":{"type":"Point","coordinates":[8.8152127,53.1010321]},"properties":{"id":"263","store":"ALDI Nord","filiale":"","name":"","city":"Bremen","address":"Hemmstraße 353-357","postal":"28215","state":"HB","opening_hours":"Mo-Fr: 08:00 - 20:00, Sa: 08:00 - 20:00","downloaded":"2018-08-24"}},{"type":"Feature","geometry":{"type":"Point","coordinates":[8.6352902,53.1702341]},"properties":{"id":"264","store":"ALDI Nord","filiale":"","name":"","city":"Bremen","address":"Hermann-Fortmann-Straße 21","postal":"28759","state":"HB","opening_hours":"Mo-Fr: 08:00 - 20:00, Sa: 08:00 - 20:00","downloaded":"2018-08-24"}},{"type":"Feature","geometry":{"type":"Point","coordinates":[8.7583266,53.1157958]},"properties":{"id":"265","store":"ALDI Nord","filiale":"","name":"","city":"Bremen","address":"Lindenhofstraße 1-15","postal":"28237","state":"HB","opening_hours":"Mo-Fr: 08:00 - 20:00, Sa: 08:00 - 20:00","downloaded":"2018-08-24"}},{"type":"Feature","geometry":{"type":"Point","coordinates":[8.8487276,53.0482669]},"properties":{"id":"266","store":"ALDI Nord","filiale":"","name":"","city":"Bremen","address":"Steinsetzerstraße  11 ","postal":"28279","state":"HB","opening_hours":"Mo-Fr: 09:00 - 20:00, Sa: 09:00 - 20:00","downloaded":"2018-08-24"}},{"type":"Feature","geometry":{"type":"Point","coordinates":[8.865108,53.068412]},"properties":{"id":"267","store":"ALDI Nord","filiale":"","name":"","city":"Bremen","address":"Emil-von-Behring-Straße 4","postal":"28207","state":"HB","opening_hours":"Mo-Fr: 08:00 - 21:00, Sa: 08:00 - 21:00","downloaded":"2018-08-24"}},{"type":"Feature","geometry":{"type":"Point","coordinates":[8.8878459,53.0598427]},"properties":{"id":"268","store":"ALDI Nord","filiale":"","name":"","city":"Bremen","address":"Osenbrückstraße  5","postal":"28309","state":"HB","opening_hours":"Mo-Fr: 08:00 - 20:00, Sa: 08:00 - 20:00","downloaded":"2018-08-24"}},{"type":"Feature","geometry":{"type":"Point","coordinates":[8.8789928,53.1005635]},"properties":{"id":"269","store":"ALDI Nord","filiale":"","name":"","city":"Bremen","address":"Leher Heerstraße 105-107","postal":"28359","state":"HB","opening_hours":"Mo-Fr: 08:00 - 21:00, Sa: 08:00 - 21:00","downloaded":"2018-08-24"}},{"type":"Feature","geometry":{"type":"Point","coordinates":[8.7436134,53.047291]},"properties":{"id":"270","store":"ALDI Nord","filiale":"","name":"","city":"Bremen","address":"Alter Dorfweg 30-50 (Roland Center)","postal":"28259","state":"HB","opening_hours":"Mo-Fr: 08:00 - 20:00, Sa: 08:00 - 20:00","downloaded":"2018-08-24"}},{"type":"Feature","geometry":{"type":"Point","coordinates":[8.8316982,53.0434465]},"properties":{"id":"271","store":"ALDI Nord","filiale":"","name":"","city":"Bremen","address":"Arsterdamm  94 A","postal":"28277","state":"HB","opening_hours":"Mo-Fr: 08:00 - 20:00, Sa: 08:00 - 20:00","downloaded":"2018-08-24"}},{"type":"Feature","geometry":{"type":"Point","coordinates":[8.8094662,53.0323542]},"properties":{"id":"272","store":"ALDI Nord","filiale":"","name":"","city":"Bremen","address":"Kattenturmer Heerstraße 326","postal":"28277","state":"HB","opening_hours":"Mo-Fr: 08:00 - 20:00, Sa: 08:00 - 20:00","downloaded":"2018-08-24"}},{"type":"Feature","geometry":{"type":"Point","coordinates":[8.56462,53.55704]},"properties":{"id":"273","store":"ALDI Nord","filiale":"","name":"","city":"Bremerhaven","address":"Barkhausenstraße 107","postal":"27568","state":"HB","opening_hours":"Mo-Fr: 08:00 - 20:00, Sa: 08:00 - 20:00","downloaded":"2018-08-24"}},{"type":"Feature","geometry":{"type":"Point","coordinates":[8.598675,53.5804526]},"properties":{"id":"274","store":"ALDI Nord","filiale":"","name":"","city":"Bremerhaven","address":"Langener Landstraße 160","postal":"27580","state":"HB","opening_hours":"Mo-Fr: 08:00 - 21:00, Sa: 08:00 - 21:00","downloaded":"2018-08-24"}},{"type":"Feature","geometry":{"type":"Point","coordinates":[8.5941433,53.5581211]},"properties":{"id":"275","store":"ALDI Nord","filiale":"","name":"","city":"Bremerhaven","address":"Stresemannstraße 150","postal":"27576","state":"HB","opening_hours":"Mo-Fr: 08:00 - 20:00, Sa: 08:00 - 20:00","downloaded":"2018-08-24"}},{"type":"Feature","geometry":{"type":"Point","coordinates":[8.6184481,53.5892044]},"properties":{"id":"276","store":"ALDI Nord","filiale":"","name":"","city":"Bremerhaven","address":"Hans-Böckler-Straße 38","postal":"27578","state":"HB","opening_hours":"Mo-Fr: 08:00 - 20:00, Sa: 08:00 - 20:00","downloaded":"2018-08-24"}},{"type":"Feature","geometry":{"type":"Point","coordinates":[8.6981654,53.1692137]},"properties":{"id":"277","store":"ALDI Nord","filiale":"","name":"","city":"Bremen","address":"Hindenburgstraße 13","postal":"28717","state":"HB","opening_hours":"Mo-Fr: 08:00 - 20:00, Sa: 08:00 - 20:00","downloaded":"2018-08-24"}},{"type":"Feature","geometry":{"type":"Point","coordinates":[8.8139907,53.0845897]},"properties":{"id":"278","store":"ALDI Nord","filiale":"","name":"","city":"Bremen","address":"Theodor-Heuß-Allee  6","postal":"28215","state":"HB","opening_hours":"Mo-Fr: 08:00 - 21:00, Sa: 08:00 - 21:00","downloaded":"2018-08-24"}},{"type":"Feature","geometry":{"type":"Point","coordinates":[8.8107866,53.0761497]},"properties":{"id":"279","store":"ALDI Nord","filiale":"","name":"","city":"Bremen","address":"Violenstraße 24","postal":"28195","state":"HB","opening_hours":"Mo-Fr: 08:00 - 20:00, Sa: 08:00 - 20:00","downloaded":"2018-08-24"}},{"type":"Feature","geometry":{"type":"Point","coordinates":[8.8831512,53.0765846]},"properties":{"id":"280","store":"ALDI Nord","filiale":"","name":"","city":"Bremen","address":"Vahrer Straße 279 / 281","postal":"28329","state":"HB","opening_hours":"Mo-Fr: 08:00 - 21:00, Sa: 08:00 - 21:00","downloaded":"2018-08-24"}},{"type":"Feature","geometry":{"type":"Point","coordinates":[8.8093478,53.0577825]},"properties":{"id":"281","store":"ALDI Nord","filiale":"","name":"","city":"Bremen","address":"Volkmannstraße  2","postal":"28201","state":"HB","opening_hours":"Mo-Fr: 08:00 - 21:00, Sa: 08:00 - 21:00","downloaded":"2018-08-24"}},{"type":"Feature","geometry":{"type":"Point","coordinates":[8.7973709,53.0736358]},"properties":{"id":"282","store":"ALDI Nord","filiale":"","name":"","city":"Bremen","address":"Westerstraße 33","postal":"28199","state":"HB","opening_hours":"Mo-Fr: 08:00 - 20:00, Sa: 08:00 - 20:00","downloaded":"2018-08-24"}},{"type":"Feature","geometry":{"type":"Point","coordinates":[8.7367467,53.1346895]},"properties":{"id":"283","store":"ALDI Nord","filiale":"","name":"","city":"Bremen","address":"Ritterhuder Heerstraße 6","postal":"28239","state":"HB","opening_hours":"Mo-Fr: 08:00 - 21:00, Sa: 08:00 - 21:00","downloaded":"2018-08-24"}},{"type":"Feature","geometry":{"type":"Point","coordinates":[8.9571195,53.0520438]},"properties":{"id":"284","store":"ALDI Nord","filiale":"","name":"","city":"Bremen","address":"Hans-Bredow-Straße 19","postal":"28325","state":"HB","opening_hours":"Mo-Fr: 08:00 - 20:00, Sa: 08:00 - 20:00","downloaded":"2018-08-24"}},{"type":"Feature","geometry":{"type":"Point","coordinates":[8.9349474,53.0581221]},"properties":{"id":"285","store":"ALDI Nord","filiale":"","name":"","city":"Bremen","address":"Osterholzer Heerstraße 111-113","postal":"28307","state":"HB","opening_hours":"Mo-Fr: 08:00 - 21:00, Sa: 08:00 - 21:00","downloaded":"2018-08-24"}},{"type":"Feature","geometry":{"type":"Point","coordinates":[8.94307,53.07823]},"properties":{"id":"286","store":"ALDI Nord","filiale":"","name":"","city":"Bremen","address":"Schevemoorer Landstraße 14-20","postal":"28325","state":"HB","opening_hours":"Mo-Fr: 08:00 - 20:00, Sa: 08:00 - 20:00","downloaded":"2018-08-24"}},{"type":"Feature","geometry":{"type":"Point","coordinates":[8.7789109,53.0886575]},"properties":{"id":"287","store":"ALDI Nord","filiale":"","name":"","city":"Bremen","address":"Konsul-Smidt-Straße 8","postal":"28217","state":"HB","opening_hours":"Mo-Fr: 08:00 - 21:00, Sa: 08:00 - 21:00","downloaded":"2018-08-24"}},{"type":"Feature","geometry":{"type":"Point","coordinates":[8.8936434,53.0801096]},"properties":{"id":"288","store":"ALDI Nord","filiale":"","name":"","city":"Bremen","address":"Berliner Freiheit  14 ","postal":"28327","state":"HB","opening_hours":"Mo-Fr: 09:00 - 20:00, Sa: 08:00 - 20:00","downloaded":"2018-08-24"}},{"type":"Feature","geometry":{"type":"Point","coordinates":[8.7869714,53.1010498]},"properties":{"id":"289","store":"ALDI Nord","filiale":"","name":"","city":"Bremen","address":"Waller Heerstraße  101","postal":"28219","state":"HB","opening_hours":"Mo-Fr: 09:00 - 21:00, Sa: 08:00 - 21:00","downloaded":"2018-08-24"}},{"type":"Feature","geometry":{"type":"Point","coordinates":[8.7709761,53.0801166]},"properties":{"id":"290","store":"ALDI Nord","filiale":"","name":"","city":"Bremen","address":"Dötlinger Straße 10-12","postal":"28197","state":"HB","opening_hours":"Mo-Fr: 08:00 - 21:00, Sa: 08:00 - 21:00","downloaded":"2018-08-24"}},{"type":"Feature","geometry":{"type":"Point","coordinates":[8.5960457,53.492303]},"properties":{"id":"291","store":"ALDI Nord","filiale":"","name":"","city":"Bremerhaven","address":"Bohmsiel 12","postal":"27572","state":"HB","opening_hours":"Mo-Fr: 08:00 - 20:00, Sa: 08:00 - 20:00","downloaded":"2018-08-24"}},{"type":"Feature","geometry":{"type":"Point","coordinates":[10.1761102,53.4833762]},"properties":{"id":"292","store":"ALDI Nord","filiale":"","name":"","city":"Hamburg","address":"Grachtenplatz 7","postal":"21035","state":"HH","opening_hours":"Mo-Fr: 08:00 - 20:00, Sa: 08:00 - 20:00","downloaded":"2018-08-24"}},{"type":"Feature","geometry":{"type":"Point","coordinates":[10.0243722,53.6122438]},"properties":{"id":"293","store":"ALDI Nord","filiale":"","name":"","city":"Hamburg","address":"Alsterdorfer Markt 4","postal":"22297","state":"HH","opening_hours":"Mo-Fr: 08:00 - 20:00, Sa: 08:00 - 20:00","downloaded":"2018-08-24"}},{"type":"Feature","geometry":{"type":"Point","coordinates":[9.9437523,53.5514995]},"properties":{"id":"294","store":"ALDI Nord","filiale":"","name":"","city":"Hamburg","address":"Große Bergstraße 152-162","postal":"22767","state":"HH","opening_hours":"Mo-Fr: 08:00 - 21:00, Sa: 08:00 - 21:00","downloaded":"2018-08-24"}},{"type":"Feature","geometry":{"type":"Point","coordinates":[9.9484728,53.5591765]},"properties":{"id":"295","store":"ALDI Nord","filiale":"","name":"","city":"Hamburg","address":"Holstenstraße 156","postal":"22765","state":"HH","opening_hours":"Mo-Fr: 08:00 - 21:00, Sa: 08:00 - 21:00","downloaded":"2018-08-24"}},{"type":"Feature","geometry":{"type":"Point","coordinates":[9.908313,53.5648842]},"properties":{"id":"296","store":"ALDI Nord","filiale":"","name":"","city":"Hamburg","address":"Bahrenfelder Kirchenweg 80","postal":"22761","state":"HH","opening_hours":"Mo-Fr: 08:00 - 20:00, Sa: 08:00 - 20:00","downloaded":"2018-08-24"}},{"type":"Feature","geometry":{"type":"Point","coordinates":[9.9155748,53.5622644]},"properties":{"id":"297","store":"ALDI Nord","filiale":"","name":"","city":"Hamburg","address":"Paul-Dessau-Straße 8","postal":"22761","state":"HH","opening_hours":"Mo-Fr: 08:00 - 20:00, Sa: 08:00 - 20:00","downloaded":"2018-08-24"}},{"type":"Feature","geometry":{"type":"Point","coordinates":[10.0431869,53.5753059]},"properties":{"id":"298","store":"ALDI Nord","filiale":"","name":"","city":"Hamburg","address":"Holsteinischer Kamp 65","postal":"22081","state":"HH","opening_hours":"Mo-Fr: 08:00 - 21:00, Sa: 08:00 - 21:00","downloaded":"2018-08-24"}},{"type":"Feature","geometry":{"type":"Point","coordinates":[10.0515815,53.5895031]},"properties":{"id":"299","store":"ALDI Nord","filiale":"","name":"","city":"Hamburg","address":"Bramfelder Straße 103","postal":"22305","state":"HH","opening_hours":"Mo-Fr: 08:00 - 21:00, Sa: 08:00 - 21:00","downloaded":"2018-08-24"}},{"type":"Feature","geometry":{"type":"Point","coordinates":[10.04351,53.59119]},"properties":{"id":"300","store":"ALDI Nord","filiale":"","name":"","city":"Hamburg","address":"Hufnerstraße 129","postal":"22305","state":"HH","opening_hours":"Mo-Fr: 08:00 - 21:00, Sa: 08:00 - 21:00","downloaded":"2018-08-24"}},{"type":"Feature","geometry":{"type":"Point","coordinates":[10.0430888,53.5830026]},"properties":{"id":"301","store":"ALDI Nord","filiale":"","name":"","city":"Hamburg","address":"Hufnerstraße 4 c","postal":"22083","state":"HH","opening_hours":"Mo-Fr: 08:00 - 20:00, Sa: 08:00 - 20:00","downloaded":"2018-08-24"}},{"type":"Feature","geometry":{"type":"Point","coordinates":[10.2102855,53.4981442]},"properties":{"id":"302","store":"ALDI Nord","filiale":"","name":"","city":"Hamburg","address":"Am Beckerkamp 29 a","postal":"21031","state":"HH","opening_hours":"Mo-Fr: 08:00 - 21:00, Sa: 08:00 - 21:00","downloaded":"2018-08-24"}},{"type":"Feature","geometry":{"type":"Point","coordinates":[10.1842277,53.4881839]},"properties":{"id":"303","store":"ALDI Nord","filiale":"","name":"","city":"Hamburg","address":"Friedrich-Frank-Bogen 166","postal":"21033","state":"HH","opening_hours":"Mo-Fr: 08:00 - 20:00, Sa: 08:00 - 20:00","downloaded":"2018-08-24"}},{"type":"Feature","geometry":{"type":"Point","coordinates":[10.2134335,53.4836228]},"properties":{"id":"304","store":"ALDI Nord","filiale":"","name":"","city":"Hamburg","address":"Neuer Weg 37 b","postal":"21029","state":"HH","opening_hours":"Mo-Fr: 08:00 - 21:00, Sa: 08:00 - 21:00","downloaded":"2018-08-24"}},{"type":"Feature","geometry":{"type":"Point","coordinates":[10.1230998,53.5387929]},"properties":{"id":"305","store":"ALDI Nord","filiale":"","name":"","city":"Hamburg","address":"Möllner Landstraße 131","postal":"22117","state":"HH","opening_hours":"Mo-Fr: 08:00 - 20:00, Sa: 08:00 - 20:00","downloaded":"2018-08-24"}},{"type":"Feature","geometry":{"type":"Point","coordinates":[10.1012597,53.5427468]},"properties":{"id":"306","store":"ALDI Nord","filiale":"","name":"","city":"Hamburg","address":"Schiffbeker Weg 27","postal":"22111","state":"HH","opening_hours":"Mo-Fr: 08:00 - 21:00, Sa: 08:00 - 21:00","downloaded":"2018-08-24"}},{"type":"Feature","geometry":{"type":"Point","coordinates":[10.0825612,53.6181542]},"properties":{"id":"307","store":"ALDI Nord","filiale":"","name":"","city":"Hamburg","address":"Berner Chaussee 16","postal":"22175","state":"HH","opening_hours":"Mo-Fr: 08:00 - 21:00, Sa: 08:00 - 21:00","downloaded":"2018-08-24"}},{"type":"Feature","geometry":{"type":"Point","coordinates":[10.0775208,53.599053]},"properties":{"id":"308","store":"ALDI Nord","filiale":"","name":"","city":"Hamburg","address":"Haldesdorfer Straße 86","postal":"22179","state":"HH","opening_hours":"Mo-Fr: 08:00 - 21:00, Sa: 08:00 - 21:00","downloaded":"2018-08-24"}},{"type":"Feature","geometry":{"type":"Point","coordinates":[9.9024077,53.6086648]},"properties":{"id":"309","store":"ALDI Nord","filiale":"","name":"","city":"Hamburg","address":"Lohkampstraße 11-25","postal":"22523","state":"HH","opening_hours":"Mo-Fr: 08:00 - 20:00, Sa: 08:00 - 20:00","downloaded":"2018-08-24"}},{"type":"Feature","geometry":{"type":"Point","coordinates":[9.8880516,53.6201391]},"properties":{"id":"310","store":"ALDI Nord","filiale":"","name":"","city":"Hamburg","address":"Pinneberger Chaussee 130-132","postal":"22523","state":"HH","opening_hours":"Mo-Fr: 08:00 - 20:00, Sa: 08:00 - 20:00","downloaded":"2018-08-24"}},{"type":"Feature","geometry":{"type":"Point","coordinates":[10.0588631,53.5686671]},"properties":{"id":"311","store":"ALDI Nord","filiale":"","name":"","city":"Hamburg","address":"Menckesallee 24-26","postal":"22089","state":"HH","opening_hours":"Mo-Fr: 08:00 - 21:00, Sa: 08:00 - 21:00","downloaded":"2018-08-24"}},{"type":"Feature","geometry":{"type":"Point","coordinates":[9.9613524,53.5731476]},"properties":{"id":"312","store":"ALDI Nord","filiale":"","name":"","city":"Hamburg","address":"Bismarckstraße 24","postal":"20259","state":"HH","opening_hours":"Mo-Fr: 08:00 - 20:00, Sa: 08:00 - 20:00","downloaded":"2018-08-24"}},{"type":"Feature","geometry":{"type":"Point","coordinates":[9.9528691,53.5824284]},"properties":{"id":"313","store":"ALDI Nord","filiale":"","name":"","city":"Hamburg","address":"Eidelstedter Weg 44","postal":"20255","state":"HH","opening_hours":"Mo-Fr: 08:00 - 21:00, Sa: 08:00 - 21:00","downloaded":"2018-08-24"}},{"type":"Feature","geometry":{"type":"Point","coordinates":[9.9546167,53.56893]},"properties":{"id":"314","store":"ALDI Nord","filiale":"","name":"","city":"Hamburg","address":"Eimsbütteler Chaussee 85","postal":"20259","state":"HH","opening_hours":"Mo-Fr: 08:00 - 21:00, Sa: 08:00 - 21:00","downloaded":"2018-08-24"}},{"type":"Feature","geometry":{"type":"Point","coordinates":[9.9516276,53.5768687]},"properties":{"id":"315","store":"ALDI Nord","filiale":"","name":"","city":"Hamburg","address":"Heußweg 37 d","postal":"20255","state":"HH","opening_hours":"Mo-Fr: 08:00 - 21:00, Sa: 08:00 - 21:00","downloaded":"2018-08-24"}},{"type":"Feature","geometry":{"type":"Point","coordinates":[9.9747341,53.6010252]},"properties":{"id":"316","store":"ALDI Nord","filiale":"","name":"","city":"Hamburg","address":"Nedderfeld 70","postal":"22529","state":"HH","opening_hours":"Mo-Fr: 8:00 - 20:00, Sa: 8:00 - 20:00","downloaded":"2018-08-24"}},{"type":"Feature","geometry":{"type":"Point","coordinates":[10.11479,53.625]},