{"type":"FeatureCollection","features":[{"type":"Feature","geometry":{"type":"Point","coordinates":[12.4158792,50.9825559]},"properties":{"id":"1","store":"Black.de","filiale":"","name":"Altenburg","city":"Altenburg","address":"Geraer Str. 72","postal":"04600","state":"TH","opening_hours":"","downloaded":"2018-08-24"}},{"type":"Feature","geometry":{"type":"Point","coordinates":[10.1987807,50.3185491]},"properties":{"id":"2","store":"Black.de","filiale":"","name":"Bad Neustadt","city":"Bad Neustadt an der Saale","address":"Hohenrother Str. 3","postal":"97616","state":"BY","opening_hours":"","downloaded":"2018-08-24"}},{"type":"Feature","geometry":{"type":"Point","coordinates":[12.5050737,52.4115495]},"properties":{"id":"3","store":"Black.de","filiale":"","name":"Brandenburg","city":"Brandenburg an der Havel","address":"Am Neuendorfer Sand 2A","postal":"14770","state":"BR","opening_hours":"","downloaded":"2018-08-24"}},{"type":"Feature","geometry":{"type":"Point","coordinates":[7.5436354,51.5233559]},"properties":{"id":"4","store":"Black.de","filiale":"","name":"Dortmund-Brackel","city":"DO","address":"Brackeler Hellweg 124","postal":"44309","state":"NW","opening_hours":"","downloaded":"2018-08-24"}},{"type":"Feature","geometry":{"type":"Point","coordinates":[7.4345443,51.4753164]},"properties":{"id":"5","store":"Black.de","filiale":"","name":"Dortmund-Hombruch","city":"DO","address":"Eschenstraße 2","postal":"44225","state":"NW","opening_hours":"","downloaded":"2018-08-24"}},{"type":"Feature","geometry":{"type":"Point","coordinates":[7.5480991,51.5583954]},"properties":{"id":"6","store":"Black.de","filiale":"","name":"Dortmund-Scharnhorst","city":"DO","address":"Droote 68","postal":"44328","state":"NW","opening_hours":"","downloaded":"2018-08-24"}},{"type":"Feature","geometry":{"type":"Point","coordinates":[6.7570109,51.4421827]},"properties":{"id":"7","store":"Black.de","filiale":"","name":"Duisburg","city":"DU","address":"Ruhrdeich 130","postal":"47059","state":"NW","opening_hours":"","downloaded":"2018-08-24"}},{"type":"Feature","geometry":{"type":"Point","coordinates":[9.7278363,48.2724482]},"properties":{"id":"8","store":"Black.de","filiale":"","name":"Ehingen","city":"Ehingen (Donau)","address":"Auenweg ","postal":"89584","state":"BW","opening_hours":"","downloaded":"2018-08-24"}},{"type":"Feature","geometry":{"type":"Point","coordinates":[6.3059138,51.0758565]},"properties":{"id":"9","store":"Black.de","filiale":"","name":"Erkelenz","city":"Erkelenz","address":"August-Horch-Straße 15","postal":"41812","state":"NW","opening_hours":"","downloaded":"2018-08-24"}},{"type":"Feature","geometry":{"type":"Point","coordinates":[7.8560652,53.0286011]},"properties":{"id":"10","store":"Black.de","filiale":"","name":"Friesoythe","city":"Friesoythe","address":"Barßeler Str. 27","postal":"26169","state":"NI","opening_hours":"","downloaded":"2018-08-24"}},{"type":"Feature","geometry":{"type":"Point","coordinates":[10.9939956,49.4700362]},"properties":{"id":"11","store":"Black.de","filiale":"","name":"Fürth","city":"FÜ","address":"Gabelsbergerstraße 1","postal":"90762","state":"BY","opening_hours":"","downloaded":"2018-08-24"}},{"type":"Feature","geometry":{"type":"Point","coordinates":[7.0944154,51.5108146]},"properties":{"id":"12","store":"Black.de","filiale":"","name":"Gelsenkirchen","city":"GE","address":"Ebertstraße 20","postal":"45879","state":"NW","opening_hours":"","downloaded":"2018-08-24"}},{"type":"Feature","geometry":{"type":"Point","coordinates":[7.4625654,51.3592202]},"properties":{"id":"13","store":"Black.de","filiale":"","name":"Hagen","city":"Hagen","address":"Elberfelder Str. 93","postal":"58095","state":"NW","opening_hours":"","downloaded":"2018-08-24"}},{"type":"Feature","geometry":{"type":"Point","coordinates":[7.7677454,51.3849649]},"properties":{"id":"14","store":"Black.de","filiale":"","name":"Hemer","city":"Hemer","address":"Hademarepl. 3","postal":"58675","state":"NW","opening_hours":"","downloaded":"2018-08-24"}},{"type":"Feature","geometry":{"type":"Point","coordinates":[7.7028193,51.3750251]},"properties":{"id":"15","store":"Black.de","filiale":"","name":"Iserlohn","city":"Iserlohn","address":"Vinckestraße 13","postal":"58636","state":"NW","opening_hours":"","downloaded":"2018-08-24"}},{"type":"Feature","geometry":{"type":"Point","coordinates":[10.4137760,50.5813789]},"properties":{"id":"16","store":"Black.de","filiale":"","name":"Meiningen","city":"Meiningen","address":"Dammstraße 22X","postal":"98617","state":"TH","opening_hours":"","downloaded":"2018-08-24"}},{"type":"Feature","geometry":{"type":"Point","coordinates":[6.8866695,51.4297391]},"properties":{"id":"17","store":"Black.de","filiale":"","name":"Mülheim","city":"Mülheim","address":" ","postal":"45468","state":"NW","opening_hours":"","downloaded":"2018-08-24"}},{"type":"Feature","geometry":{"type":"Point","coordinates":[6.8356847,51.4969881]},"properties":{"id":"18","store":"Black.de","filiale":"","name":"Oberhausen","city":"Oberhausen","address":"Lessingstraße 5","postal":"46149","state":"NW","opening_hours":"","downloaded":"2018-08-24"}},{"type":"Feature","geometry":{"type":"Point","coordinates":[7.3057171,50.3074152]},"properties":{"id":"19","store":"Black.de","filiale":"","name":"Polch","city":"Polch","address":"Im Roten Tal 2","postal":"56751","state":"RP","opening_hours":"","downloaded":"2018-08-24"}},{"type":"Feature","geometry":{"type":"Point","coordinates":[7.2015388,51.6143867]},"properties":{"id":"20","store":"Black.de","filiale":"","name":"Recklinghausen","city":"Recklinghausen","address":"Kunibertistraße 34","postal":"45657","state":"NW","opening_hours":"","downloaded":"2018-08-24"}},{"type":"Feature","geometry":{"type":"Point","coordinates":[7.1927055,51.1799394]},"properties":{"id":"21","store":"Black.de","filiale":"","name":"Remscheid","city":"RS","address":"Alleestraße 13-19","postal":"42853","state":"NW","opening_hours":"","downloaded":"2018-08-24"}},{"type":"Feature","geometry":{"type":"Point","coordinates":[7.1873415,50.7802825]},"properties":{"id":"22","store":"Black.de","filiale":"","name":"Sankt Augustin","city":"Sankt Augustin","address":"Südstraße 33","postal":"53757","state":"NW","opening_hours":"","downloaded":"2018-08-24"}},{"type":"Feature","geometry":{"type":"Point","coordinates":[11.0410720,49.9790255]},"properties":{"id":"23","store":"Black.de","filiale":"","name":"Scheßlitz","city":"Scheßlitz","address":"Oberend 32","postal":"96110","state":"BY","opening_hours":"","downloaded":"2018-08-24"}},{"type":"Feature","geometry":{"type":"Point","coordinates":[7.0843876,51.1739228]},"properties":{"id":"24","store":"Black.de","filiale":"","name":"Solingen","city":"SG","address":"Mühlenpl. 1","postal":"42651","state":"NW","opening_hours":"","downloaded":"2018-08-24"}},{"type":"Feature","geometry":{"type":"Point","coordinates":[10.2430700,49.5417600]},"properties":{"id":"25","store":"Black.de","filiale":"","name":"Uffenheim","city":"Uffenheim","address":"Fürther Str. 3","postal":"97215","state":"BY","opening_hours":"","downloaded":"2018-08-24"}},{"type":"Feature","geometry":{"type":"Point","coordinates":[12.0687500,49.9828500]},"properties":{"id":"26","store":"Black.de","filiale":"","name":"Waldershof","city":"Waldershof","address":"Marktredwitzer Str. 34","postal":"95679","state":"BY","opening_hours":"","downloaded":"2018-08-24"}},{"type":"Feature","geometry":{"type":"Point","coordinates":[9.1524344,51.4884766]},"properties":{"id":"27","store":"Black.de","filiale":"","name":"Warburg","city":"Warburg","address":"Unterstraße 4","postal":"34414","state":"NW","opening_hours":"","downloaded":"2018-08-24"}},{"type":"Feature","geometry":{"type":"Point","coordinates":[7.6368040,51.6637699]},"properties":{"id":"28","store":"Black.de","filiale":"","name":"Werne","city":"Werne","address":"Moormannpl. 16","postal":"59368","state":"NW","opening_hours":"","downloaded":"2018-08-24"}},{"type":"Feature","geometry":{"type":"Point","coordinates":[7.9131033,51.5537705]},"properties":{"id":"29","store":"Black.de","filiale":"","name":"Werl","city":"Werl","address":"Marktstraße 11","postal":"59457","state":"NW","opening_hours":"","downloaded":"2018-08-24"}},{"type":"Feature","geometry":{"type":"Point","coordinates":[7.7930265,50.4737993]},"properties":{"id":"30","store":"Black.de","filiale":"","name":"Wirges","city":"Wirges","address":"Samoborstraße 4","postal":"56422","state":"RP","opening_hours":"","downloaded":"2018-08-24"}},{"type":"Feature","geometry":{"type":"Point","coordinates":[8.2883200,49.6324900]},"properties":{"id":"31","store":"Black.de","filiale":"","name":"Worms","city":"WO","address":"Küferstraße 15","postal":"67551","state":"RP","opening_hours":"","downloaded":"2018-08-24"}},{"type":"Feature","geometry":{"type":"Point","coordinates":[8.5314700,52.0256900]},"properties":{"id":"32","store":"Black.de","filiale":"","name":"Bielefeld","city":"Baranowice","address":"Bahnhofstraße ","postal":"33602","state":"NW","opening_hours":"","downloaded":"2018-08-24"}}]}