{
"type": "FeatureCollection",
"name": "zeeman",
"crs": { "type": "name", "properties": { "name": "urn:ogc:def:crs:OGC:1.3:CRS84" } },
"features": [
{ "type": "Feature", "properties": { "id": 9, "latitude": 52.5521592, "longitude": 13.3823694, "address": "Badstraße 23 , Berlin wedding, 13357" }, "geometry": { "type": "Point", "coordinates": [ 13.3823694, 52.5521592 ] } },
{ "type": "Feature", "properties": { "id": 10, "latitude": 52.52228, "longitude": 13.59076, "address": "Cecilienplatz 1 , Berlin hellersdorf, 12619" }, "geometry": { "type": "Point", "coordinates": [ 13.59076, 52.52228 ] } },
{ "type": "Feature", "properties": { "id": 11, "latitude": 52.513999, "longitude": 13.4700456, "address": "Frankfurter Allee 86b , Berlin, 10247" }, "geometry": { "type": "Point", "coordinates": [ 13.4700456, 52.513999 ] } },
{ "type": "Feature", "properties": { "id": 12, "latitude": 52.5278387, "longitude": 13.5397738, "address": "Helene Weigel Platz 7 , Berlin, 12681" }, "geometry": { "type": "Point", "coordinates": [ 13.5397738, 52.5278387 ] } },
{ "type": "Feature", "properties": { "id": 13, "latitude": 52.5374615, "longitude": 13.6032799, "address": "Fritz Lang Platz 1 , Berlin, 12627" }, "geometry": { "type": "Point", "coordinates": [ 13.6032799, 52.5374615 ] } },
{ "type": "Feature", "properties": { "id": 14, "latitude": 52.5229211, "longitude": 13.4647371, "address": "Hermann-Blankensteinstraße 40-44 , Berlin, 10249" }, "geometry": { "type": "Point", "coordinates": [ 13.4647371, 52.5229211 ] } },
{ "type": "Feature", "properties": { "id": 15, "latitude": 52.4773093, "longitude": 13.426011, "address": "Hermannstraße 53 , Berlin neukölln, 12049" }, "geometry": { "type": "Point", "coordinates": [ 13.426011, 52.4773093 ] } },
{ "type": "Feature", "properties": { "id": 16, "latitude": 52.47598, "longitude": 13.43841, "address": "Karl Marx Straße 152-154 , Berlin neukölln, 12043" }, "geometry": { "type": "Point", "coordinates": [ 13.43841, 52.47598 ] } },
{ "type": "Feature", "properties": { "id": 17, "latitude": 52.4983293, "longitude": 13.4187858, "address": "Kottbusser Damm 88-89 , Berlin, 10967" }, "geometry": { "type": "Point", "coordinates": [ 13.4187858, 52.4983293 ] } },
{ "type": "Feature", "properties": { "id": 18, "latitude": 52.548849, "longitude": 13.4504075, "address": "Langhansstraße 2 , Berlin, 13086" }, "geometry": { "type": "Point", "coordinates": [ 13.4504075, 52.548849 ] } },
{ "type": "Feature", "properties": { "id": 19, "latitude": 52.5553239, "longitude": 13.5598951, "address": "Ludwig Renn Straße 72 , Berlin marzahn, 12687" }, "geometry": { "type": "Point", "coordinates": [ 13.5598951, 52.5553239 ] } },
{ "type": "Feature", "properties": { "id": 20, "latitude": 52.543477, "longitude": 13.4425535, "address": "Greifswalder Strasse 90 , Berlin prenzlauer, 10405" }, "geometry": { "type": "Point", "coordinates": [ 13.4425535, 52.543477 ] } },
{ "type": "Feature", "properties": { "id": 21, "latitude": 52.5657689, "longitude": 13.3629674, "address": "Residenzstraße 40-41 , Berlin reinickendorf, 13409" }, "geometry": { "type": "Point", "coordinates": [ 13.3629674, 52.5657689 ] } },
{ "type": "Feature", "properties": { "id": 22, "latitude": 52.4696599, "longitude": 13.3329366, "address": "Rheinstraße 15-16 , Berlin schöneberg, 12159" }, "geometry": { "type": "Point", "coordinates": [ 13.3329366, 52.4696599 ] } },
{ "type": "Feature", "properties": { "id": 23, "latitude": 52.5650015, "longitude": 13.3251303, "address": "Scharnweberstraße 25 , Berlin reinickendorf, 13405" }, "geometry": { "type": "Point", "coordinates": [ 13.3251303, 52.5650015 ] } },
{ "type": "Feature", "properties": { "id": 24, "latitude": 52.5500273, "longitude": 13.3520679, "address": "Seestraße 44a , Berlin wedding, 13353" }, "geometry": { "type": "Point", "coordinates": [ 13.3520679, 52.5500273 ] } },
{ "type": "Feature", "properties": { "id": 25, "latitude": 52.5360109, "longitude": 13.2044209, "address": "Breite Straße 13 , Berlin spandau, 13597" }, "geometry": { "type": "Point", "coordinates": [ 13.2044209, 52.5360109 ] } },
{ "type": "Feature", "properties": { "id": 26, "latitude": 52.5482879, "longitude": 13.5040092, "address": "Hauptstr. 9 , Berlin, 13055" }, "geometry": { "type": "Point", "coordinates": [ 13.5040092, 52.5482879 ] } },
{ "type": "Feature", "properties": { "id": 27, "latitude": 52.52692, "longitude": 13.33095, "address": "Turmstraße 66 , Berlin, 10551" }, "geometry": { "type": "Point", "coordinates": [ 13.33095, 52.52692 ] } },
{ "type": "Feature", "properties": { "id": 28, "latitude": 52.6352648, "longitude": 13.4951884, "address": "Wiltbergstraße 9 , Berlin buch, 13125" }, "geometry": { "type": "Point", "coordinates": [ 13.4951884, 52.6352648 ] } },
{ "type": "Feature", "properties": { "id": 29, "latitude": 52.42282, "longitude": 13.47521, "address": "Joachim-Gottschalk-Weg 21 , Berlin, 12353" }, "geometry": { "type": "Point", "coordinates": [ 13.47521, 52.42282 ] } }
]
}
